,church_name,address,telephone number,priest,confession,links,additional info,last update,coords,long,lat
0,Archdiocesan Shrine of Christ our Lord of the Holy Sepulcher (Apung Mamacalulu),"C. Dayrit St., Lourdes Sur, Angeles City, Pampanga",(045) 624 0344,,,,,"Sun Jun 4, 2023 12:17PM","{'lat': 15.1416878, 'lng': 120.5909457}",120.5909457,15.1416878
1,Christ the King Parish,"Pulung Cacutud, Angeles City, Pampanga",,,,,,"Sun Jun 4, 2023 12:20PM","{'lat': 15.1614718, 'lng': 120.6113599}",120.6113599,15.1614718
2,Holy Cross Parish,"Sapangbato, Angeles City, Pampanga",0918 963 6828,,,,,"Sun Jun 4, 2023 2:06PM","{'lat': 15.1670159, 'lng': 120.4898564}",120.4898564,15.1670159
3,Holy Rosary Parish (Pisamban Maragul),"Sto. Rosario St., Angeles City, Pampanga",0928 520 7489,,MWF: 6AM-7AM; Sat: 430PM-530PM (except after 1st friday); thur before1st: 430PM,,,"Sun Jun 4, 2023 12:28PM","{'lat': 15.1322054, 'lng': 120.5931786}",120.5931786,15.1322054
4,Holy Spirit Parish,"254 Astoria Avenue, Angeles City, Pampanga",0975 045 7696,,,,,"Sun Jun 4, 2023 12:33PM","{'lat': 15.1504415, 'lng': 120.5960318}",120.5960318,15.1504415
5,Immaculate Conception Parish,"Balibago, Angeles City, Pampanga","(045) 322 2149, 0998 236 9213",,,,,"Sun Jun 4, 2023 12:52PM","{'lat': 15.1640492, 'lng': 120.5940988}",120.5940988,15.1640492
6,Jesus The Eternal Word Parish,"Riverside Subdivision, Friendship, Brgy. Anunas, Angeles City, Pampanga",0967 406 5895,,,,,"Sun Jun 4, 2023 12:58PM","{'lat': 15.1607173, 'lng': 120.5552528}",120.5552528,15.1607173
7,Our Lady Of Fatima Parish,"Hensonville, Angeles City, Pampanga",0977 116 0829,,,,OFFICE HOURS,"Sun Jun 4, 2023 1:00PM","{'lat': 15.1588762, 'lng': 120.5817878}",120.5817878,15.1588762
8,Our Lady of Lourdes Parish,"Lourdes Sur East, Angeles City, Pampanga",,,,,,"Sun Jun 4, 2023 1:04PM","{'lat': 15.1439538, 'lng': 120.5933795}",120.5933795,15.1439538
9,Our Lady of Perpetual Help Chapel,"3rd Level, MarQuee Mall, Angeles City, Pampanga",,,,,,"Sun Jun 4, 2023 1:13PM","{'lat': 15.1640377, 'lng': 120.6093147}",120.6093147,15.1640377
10,Our Lady of Remedies Chapel,"Air Force City, Clark Air Base, Angeles City, Pampanga",,,,,,"Sun Jun 4, 2023 1:14PM","{'lat': 15.1811584, 'lng': 120.5360064}",120.5360064,15.1811584
11,Sta. Teresita Parish,"Brgy. Sta. Teresita, Angeles City, Pampanga",0935 004 4789,,,,,"Sun Jun 4, 2023 1:15PM","{'lat': 15.1501959, 'lng': 120.585681}",120.585681,15.1501959
12,The Lord's Transfiguration Parish,"L & S Subdivision, Angeles City, Pampanga",0929 642 1691,,,,Chapel Masses,"Sun Jun 4, 2023 1:23PM","{'lat': 15.120456, 'lng': 120.5938148}",120.5938148,15.120456
0,Blessed Mother and St. John the Evangelist Churh,"Gardenville Subd., Bacolod City, Negros Occidental",,,,,,"Wed Mar 17, 2010 10:43AM","{'lat': 10.6272129, 'lng': 122.9283589}",122.9283589,10.6272129
1,Holy Family Parish,"City Heights Subd., Bacolod City, Negros Occidental",,,,,,"Sun May 7, 2023 10:33AM","{'lat': 10.6525017, 'lng': 122.9554831}",122.9554831,10.6525017
2,Holy Family Parish,"Brgy. Handumanan, Bacolod City, Negros Occidental",,,,,,"Sun May 7, 2023 1:08AM","{'lat': 10.5977422, 'lng': 122.9603164}",122.9603164,10.5977422
3,Immaculate Conception Parish,"Villamonte, Bacolod City, Negros Occidental",0920 577 2963,,,,,"Sun May 7, 2023 1:15AM","{'lat': 10.6738073, 'lng': 122.9649129}",122.9649129,10.6738073
4,Nuestra Señora de Salvacion Parish,"Brgy. Banago, Bacolod City, Negros Occidental",(034) 4340119,,,,,"Sun May 7, 2023 11:47AM","{'lat': 10.6937783, 'lng': 122.9537883}",122.9537883,10.6937783
5,Our Lady of Candles Parish,"Piña-Benares Sts., Capitol Heights, Bacolod City, Negros Occidental",(034) 435-3065,,Thursday before First Friday: 6:00PM,,,"Sun May 7, 2023 11:50AM","{'lat': 25.3176452, 'lng': 82.9739144}",82.9739144,25.3176452
6,Our Lady of Fatima Parish,"San Sebastian - Sta. Ana Streets, Bacolod City, Negros Occidental",433-6327,,,,,"Sun May 7, 2023 11:58AM","{'lat': 10.6626694, 'lng': 122.953693}",122.953693,10.6626694
7,Our Lady of Lourdes,"Brgy. Bata, Bacolod City, Negros Occidental",,,,,,"Mon May 29, 2023 8:12PM","{'lat': 10.701762, 'lng': 122.971405}",122.971405,10.701762
8,Our Lady of Lourdes Parish,"Brgy. Granada, Bacolod City, Negros Occidental",(034) 708 1643,,,,,"Sun May 7, 2023 10:24PM","{'lat': 10.665628, 'lng': 123.0364356}",123.0364356,10.665628
9,Our Lady of Mt. Carmel Chapel,"Riverside Medical Center, Bacolod City, Negros Occidental",0344337331,,,,,"Sun May 7, 2023 12:20PM","{'lat': 10.6829765, 'lng': 122.9580532}",122.9580532,10.6829765
10,Our Lady of Peace and Good Voyage,"Airport Subd., Bacolod City, Negros Occidental",,,,,,"Sun May 7, 2023 3:49PM","{'lat': 10.6682158, 'lng': 122.9458295}",122.9458295,10.6682158
11,Our Lady of the Holy Rosary Chaplaincy,"Eroreco Subd., Bacolod City, Negros Occidental",,,,,,"Sun May 7, 2023 4:06PM","{'lat': 10.6830884, 'lng': 122.9707026}",122.9707026,10.6830884
12,Our Lady Of The Miraculous Medal Chapel,"B.S Aquino Drive, Villamonte,The Doctors' Hospital Inc., Bacolod City, Negros Occidental",4320292,,,,,"Tue May 9, 2023 9:13PM","{'lat': 10.6781181, 'lng': 122.9604044}",122.9604044,10.6781181
13,Our Lady Of The Miraculous Medal Chaplaincy,"Homesite, Brgy. Montevista, Bacolod City, Negros Occidental",(034) 704 0778,,,,,"Sun May 7, 2023 4:26PM","{'lat': 10.6676761, 'lng': 122.9700555}",122.9700555,10.6676761
14,Our Lady of the Miraculous Medal Parish and Shrine,"Brgy. Mansilingan, Bacolod City, Negros Occidental",435-0980,,,,,"Sun May 7, 2023 8:42PM","{'lat': 10.6327078, 'lng': 122.9751476}",122.9751476,10.6327078
15,Our Lady of the Most Holy Rosary Parish and Shrine,"Brgy. Alangilan, Bacolod City, Negros Occidental",0915 088 1004,,,,,"Sun May 7, 2023 9:41AM","{'lat': 10.6713916, 'lng': 122.9511956}",122.9511956,10.6713916
16,Queen of Peace Parish,"Hilado St., Bacolod City, Negros Occidental",(034) 434 2932,,,,,"Sun May 7, 2023 8:19PM","{'lat': 10.6727239, 'lng': 122.9573809}",122.9573809,10.6727239
17,Sacred Heart Shrine (Lupit Church),"Lizares Avenue, Bacolod City, Negros Occidental",(034) 431 1317,,,,,"Sun May 7, 2023 8:38PM","{'lat': 10.6596407, 'lng': 122.946167}",122.946167,10.6596407
18,San Antonio Abad Parish,"Lacson Extension Street, Bacolod City, Negros Occidental",(034) 434-9391,,,,,"Sun May 7, 2023 8:47PM","{'lat': 10.6493866, 'lng': 122.9406303}",122.9406303,10.6493866
19,San Antonio de Padua,"Villa Angela Subd, Bacolod City, Negros Occidental",,,,,,"Sun May 7, 2023 8:56PM","{'lat': 10.6608686, 'lng': 122.9755755}",122.9755755,10.6608686
20,San Isidro Labrador Parish,"Brgy. Tangub, Bacolod City, Negros Occidental",034- 7045284,,,,,"Sun May 7, 2023 9:03PM","{'lat': 10.6359977, 'lng': 122.9302774}",122.9302774,10.6359977
21,San Sebastian Cathedral,"Cor. San Juan and Rizal Sts., Bacolod City, Negros Occidental",(034) 433 0261,,,,,"Sun Aug 6, 2023 12:24AM","{'lat': 10.6722442, 'lng': 122.9410191}",122.9410191,10.6722442
22,Shrine of Our Lady of Perpetual Help (Redemptorist Church),"Benigno Aquino Drive, Bacolod City, Negros Occidental",434-0976,,,,,"Sun May 7, 2023 9:24PM","{'lat': 10.6762785, 'lng': 122.9607705}",122.9607705,10.6762785
23,St. John the Baptist Chaplaincy,"Punta-Taytay, Bacolod City, Negros Occidental",0963 320 8213,,,,,"Sun May 7, 2023 9:34PM","{'lat': 10.5971128, 'lng': 122.9057271}",122.9057271,10.5971128
24,St. Joseph the Worker Chaplaincy,"Paglaum Village, Barangay Mansilingan, Bacolod City, Negros Occidental",,,,,,"Sun May 7, 2023 10:03PM","{'lat': 10.619041, 'lng': 123.004931}",123.004931,10.619041
25,St. Joseph The Worker Parish,"Doña Juliana Dr, Bacolod City, Negros Occidental",4345093,,,,,"Sun May 7, 2023 10:10PM","{'lat': 10.6568716, 'lng': 122.9588449}",122.9588449,10.6568716
26,"St. Joseph, Husband of Mary Chaplaincy","Mount Kanlaon St., Mountainview Subdivision, Mandalagan, Bacolod City, Negros Occidental",(034) 441-2146,,,,,"Sun May 7, 2023 9:49PM","{'lat': 10.6945317, 'lng': 122.9675501}",122.9675501,10.6945317
27,"St. Joseph, Husband of Mary Parish","Henrietta Village, Bacolod City, Negros Occidental",,,,,,"Sun May 7, 2023 9:54PM","{'lat': 10.6569043, 'lng': 122.9355635}",122.9355635,10.6569043
28,St. Juan Nepomuceno Parish,"Araneta, Street, Brgy. Sum-ag, Bacolod City, Negros Occidental",(034) 444 0311,,,,,"Sun May 7, 2023 10:16PM","{'lat': 10.601359, 'lng': 122.9194582}",122.9194582,10.601359
29,St. Jude Thaddeus Parish and Diocesan Shrine,"Barangay Alijis, Bacolod City, Negros Occidental",433-5907,,,,,"Mon May 8, 2023 12:29PM","{'lat': 10.6368241, 'lng': 122.9501488}",122.9501488,10.6368241
30,St. Matthew Chaplaincy,"Blk 5 Lot 2 San Mateo Chaplaincy, San Mateo Village, Brgy. Banago, Bacolod City, Negros Occidental",034 474-1546,,,,,"Mon May 8, 2023 5:21PM","{'lat': 10.6816036, 'lng': 122.9556291}",122.9556291,10.6816036
31,St. Therese of the Child Jesus Quasi-Parish,"Cameroli Avenue, Barangay 35, Bacolod City, Negros Occidental",(034) 433 2775,,,,,"Mon May 8, 2023 5:27PM","{'lat': 10.6658723, 'lng': 122.9344302}",122.9344302,10.6658723
32,Sto. Niño Chapel,"Lacson St., Bacolod City, Negros Occidental",,,,,,"Wed Mar 17, 2010 10:43AM","{'lat': 10.6835278, 'lng': 122.9561194}",122.9561194,10.6835278
33,Sto. Niño Chaplaincy,"Lausanne Street, Helvetia Heights Subdivision Barangay Villamonte, Bacolod City, Negros Occidental",0991 558 5858,,,,,"Mon May 8, 2023 6:28PM","{'lat': 10.6627521, 'lng': 122.9705706}",122.9705706,10.6627521
34,Sto. Niño Parish,"Sitio Aning, Brgy. Pahanocoy, Bacolod City, Negros Occidental",468-4665,,By appointment,,,"Mon May 8, 2023 5:42PM","{'lat': 10.6124262, 'lng': 122.9241601}",122.9241601,10.6124262
35,Sto.Niño Parish and Shrine,"AB Parreno Avenue (BBB Galo), Bacolod City, Negros Occidental","(034) 474 3398, 0907 608 9475",,,,,"Sun May 21, 2023 10:56PM","{'lat': 10.6675751, 'lng': 122.9563053}",122.9563053,10.6675751
36,Triumph of the Holy Cross Parish,"Burogs Ext., Brgy. Estefania, Bacolod City, Negros Occidental",(034) 434 0364,,,,,"Mon May 8, 2023 6:00PM","{'lat': 10.670575, 'lng': 122.9846259}",122.9846259,10.670575
37,University of St. La Salle Chapel,"La Salle Avenue, Bacolod City, Negros Occidental",4321180 (local 341),,,,,"Fri Mar 22, 2013 11:58AM","{'lat': 10.6822804, 'lng': 122.9659562}",122.9659562,10.6822804
0,Adoration Convent of the Divine Mercy (Pink Sisters's Convent),"Brent Road, Baguio City, Benguet",,,,,,"Thu Jul 8, 2010 3:59AM","{'lat': 16.4115261, 'lng': 120.6036038}",120.6036038,16.4115261
1,Holy Family Parish,"Bakakeng, Baguio City, Benguet","(074) 444-3676,  0915 189 3929",,,,,"Wed Jul 12, 2023 10:21AM","{'lat': 16.3860279, 'lng': 120.5897832}",120.5897832,16.3860279
2,Immaculate Conception Parish,"Aurora Hill, Baguio City, Benguet",(074) 445 4962,,,,,"Wed Jul 12, 2023 10:28AM","{'lat': 16.4243114, 'lng': 120.6030892}",120.6030892,16.4243114
3,Our Lady of Atonement Cathedral ( Baguio Cathedral),"Kabayanihan Baranggay, Baguio City, Benguet",(074) 424 7871,,"Wed and Fri: 7:30AM, Sun: 8:30AM-9:30AM and 11:00AM-12:00NN",,,"Thu Dec 14, 2023 7:47PM","{'lat': 16.4148783, 'lng': 120.5968362}",120.5968362,16.4148783
4,Our Lady of Grace Parish,"Everlasting St., Baguio City, Benguet",442-0414,,by appointment,,,"Wed Jul 12, 2023 10:33AM","{'lat': 16.4068003, 'lng': 120.5900601}",120.5900601,16.4068003
5,Our Lady of Lourdes Church,"Kisad Road, Baguio City, Benguet",443-9332,,Approach Priest prefarably at least 20 minutes before of after the Mass,,,"Fri Sep 9, 2022 5:57PM","{'lat': 16.4083753, 'lng': 120.5942647}",120.5942647,16.4083753
6,San Lorenzo Ruiz Parish,"07 Purok Bubon, Loakan Proper, Baguio City, Benguet","0961 689 4788, 0915 155 8099",,,,,"Wed Jul 12, 2023 10:39AM","{'lat': 16.3740002, 'lng': 120.6156748}",120.6156748,16.3740002
7,St. Aloysius Gonzaga Parish (SLU Parish),"A. Bonifacio Street, Baguio City, Benguet",(074) 442 2793,,,,,"Wed Jul 12, 2023 10:42AM","{'lat': 16.4168819, 'lng': 120.5961545}",120.5961545,16.4168819
8,St. John Bosco Parish,"Don Bosco (corner Malvar St.), Trancoville, Baguio City, Benguet",(074) 6611603,,,,,"Wed Jul 12, 2023 12:48PM","{'lat': 16.4261511, 'lng': 120.5978505}",120.5978505,16.4261511
9,St. Joseph the Husband of Mary Parish,"Irisan, Baguio City, Benguet",0929 611 9134,,,,,"Wed Jul 12, 2023 12:51PM","{'lat': 16.4210976, 'lng': 120.5595696}",120.5595696,16.4210976
10,St. Joseph The Worker Parish,"Pacdal Circle, Baguio City, Benguet",(074) 442-4021,,,,,"Sat Aug 6, 2022 6:13PM","{'lat': 16.4163158, 'lng': 120.6155933}",120.6155933,16.4163158
11,St. Louis University Parish,"A. Bonifacio Street, Baguio City, Benguet",(074) 442 2793,,,,,"Wed Jul 12, 2023 10:42AM","{'lat': 16.4168819, 'lng': 120.5961545}",120.5961545,16.4168819
12,St. Vincent Parish,"Naguilian Road, Baguio City, Benguet",0968 264 1696,,,,,"Sun Jun 4, 2023 9:53PM","{'lat': 16.413174, 'lng': 120.573782}",120.573782,16.413174
0,Birhen sa Kasilak Mindanao Shrine Parish,"Brgy. Bading, Butuan City, Agusan del Norte",0966 188 6523,,,,,"Mon May 8, 2023 7:35PM","{'lat': 8.9683166, 'lng': 125.534514}",125.534514,8.9683166
1,Christ the King Parish,"Tungao, Butuan City, Agusan del Norte",0909 770 4134,,,,,"Mon May 8, 2023 7:40PM","{'lat': 8.7786654, 'lng': 125.5677887}",125.5677887,8.7786654
2,Holy Cross Parish,"Ampayon, Butuan City, Agusan del Norte",(085) 817 0945,,,,,"Thu May 11, 2023 4:35PM","{'lat': 8.9591541, 'lng': 125.6150159}",125.6150159,8.9591541
3,Holy Redeemer Parish,"Langihan, Butuan City, Agusan del Norte",342-3402,,,,,"Wed Mar 17, 2010 10:43AM","{'lat': 8.9559203, 'lng': 125.5357449}",125.5357449,8.9559203
4,Immaculate Conception Parish,"St. Joseph Subdivision, Butuan City, Agusan del Norte",342-6545,,,,,"Mon May 8, 2023 8:29PM","{'lat': 8.9372648, 'lng': 125.5318155}",125.5318155,8.9372648
5,Our Lady Of Fatima Parish,"Libertad, Butuan City, Agusan del Norte",,,30 minutes before every Mass,,,"Mon May 8, 2023 8:47PM","{'lat': 8.9444561, 'lng': 125.4946236}",125.4946236,8.9444561
6,Our Mother of Perpetual Help,"Brgy.23 Holy Redeemer, Butuan City, Agusan del Norte",0948 399 4997,,,,,"Sat Apr 3, 2021 10:32PM","{'lat': 8.958898999999999, 'lng': 125.528886}",125.528886,8.958898999999999
7,San Isidro Labrador Parish,"Brgy. Bonbon, Butuan City, Agusan del Norte",0909 676 9505,,,,,"Mon May 8, 2023 8:49PM","{'lat': 8.9153275, 'lng': 125.5055758}",125.5055758,8.9153275
8,San Vicente Ferrer Parish,"Brgy. San Vicente, Butuan City, Agusan del Norte",,,,,,"Sat Apr 3, 2021 10:44PM","{'lat': 8.907029099999999, 'lng': 125.5467055}",125.5467055,8.907029099999999
9,St. Ezekiel Moreno Parish,"Baan, Butuan City, Agusan del Norte",342-8228,,,,,"Mon May 8, 2023 9:03PM","{'lat': 8.952114603137478, 'lng': 125.5503957174769}",125.5503957174769,8.952114603137478
10,St. Joseph Cathedral,"E. Luna Street, Butuan City, Agusan del Norte",0906 086 9995,,Wed: 3:40PM-4:30PM and Fri: 3:30PM-4:30PM,,,"Mon May 8, 2023 9:09PM","{'lat': 8.9487692, 'lng': 125.5429651}",125.5429651,8.9487692
11,St. Jude Thaddeus Parish,"Alviola Village, Butuan City, Agusan del Norte",0963 340 1414,,,,,"Tue May 9, 2023 8:09AM","{'lat': 8.9518886, 'lng': 125.5877908}",125.5877908,8.9518886
12,Sto. Niño Diocesan Shrine,"Libertad, Butuan City, Agusan del Norte",(085) 342-8370; 226-5567,"Rev. Msgr. Ruel S. Lasco, PC",,,,"Tue Apr 13, 2021 6:09PM","{'lat': 8.9444561, 'lng': 125.4946236}",125.4946236,8.9444561
0,Carmelite Monastery,"Seminary Hill, Camaman-an, Cagayan De Oro City, Misamis Oriental",,,,,,"Wed Sep 6, 2023 8:40PM","{'lat': 8.471453, 'lng': 124.6649124}",124.6649124,8.471453
1,Chair of St. Peter The Apostles Parish,"Parola , Macabalan, Cagayan De Oro City, Misamis Oriental",0935 233 4161,,,,,"Wed Sep 6, 2023 8:43PM","{'lat': 8.5057596, 'lng': 124.6612856}",124.6612856,8.5057596
2,Holy Cross Parish,"Balulang, Cagayan De Oro City, Misamis Oriental",,,,,,"Wed Sep 6, 2023 8:50PM","{'lat': 8.4414173, 'lng': 124.6275706}",124.6275706,8.4414173
3,Holy Rosary Parish,"Agusan, Cagayan De Oro City, Misamis Oriental",(0882) 855-3396,,,,,"Thu Sep 7, 2023 9:28PM","{'lat': 8.4850703, 'lng': 124.749218}",124.749218,8.4850703
4,Immaculate Conception Parish,"Bulua, Cagayan De Oro City, Misamis Oriental",,,,,,"Thu Sep 7, 2023 9:53PM","{'lat': 8.5078138, 'lng': 124.6165033}",124.6165033,8.5078138
5,Immaculate Conception Parish,"Aluba Subd., Mandumol, Macasandig, Cagayan De Oro City, Misamis Oriental",0936-745-7211 or 857-3931,,After Daily Mass,,,"Wed Sep 6, 2023 8:59PM","{'lat': 8.456892700000001, 'lng': 124.6465193}",124.6465193,8.456892700000001
6,Jesus Nazareno Parish,"Claro M. Recto Avenue, Cagayan De Oro City, Misamis Oriental",,,,,,"Thu Dec 15, 2022 8:59PM","{'lat': 8.4774312, 'lng': 124.6766477}",124.6766477,8.4774312
7,Nuestra Señora Virgen del Rosario Consolacion Parish,"Consolacion, Cagayan De Oro City, Misamis Oriental",,,,,,"Sat Mar 27, 2021 4:20PM","{'lat': 8.491774399999999, 'lng': 124.648318}",124.648318,8.491774399999999
8,Our Lady of Fatima Parish,"Hayes Street, Barangay Camaman-an, Cagayan De Oro City, Misamis Oriental",(088) 857 3802,,,,,"Thu Sep 7, 2023 8:52PM","{'lat': 8.47372, 'lng': 124.6617633}",124.6617633,8.47372
9,Our Lady of Fatima Parish Church,"Lower Balulang, Cagayan De Oro City, Misamis Oriental",,,,,Chapel Sunday Mass,"Sun Sep 10, 2023 8:18AM","{'lat': 8.4414173, 'lng': 124.6275706}",124.6275706,8.4414173
10,Our Lady of Guadalupe Shrine,"Tablon, Cagayan De Oro City, Misamis Oriental",,,,,,"Fri Sep 8, 2023 9:59PM","{'lat': 8.4655081, 'lng': 124.7354031}",124.7354031,8.4655081
11,Our Lady Of Miraculous Medal Parish Church,"Lumbia, Cagayan De Oro City, Misamis Oriental",0967 394 9823,,,,,"Fri Sep 8, 2023 9:21PM","{'lat': 8.4106179, 'lng': 124.5860608}",124.5860608,8.4106179
12,Our Lady of Mt. Carmel Parish Church,"J.V Seriña Street, Carmen, Cagayan De Oro City, Misamis Oriental",,,,,,"Thu Sep 7, 2023 9:45PM","{'lat': 8.4765653, 'lng': 124.6381513}",124.6381513,8.4765653
13,Our Lady of the Angels Chapel,"San Isidro Village, Kauswagan, Cagayan De Oro City, Misamis Oriental",,,,,Franciscan Friars of the Immaculate,"Sat Sep 9, 2023 1:51PM","{'lat': 8.4972026, 'lng': 124.6397771}",124.6397771,8.4972026
14,Sacred Heart of Jesus Chaplaincy,"Zone 2 Canitoan, Cagayan De Oro City, Misamis Oriental",,,,,,"Fri Sep 8, 2023 9:38PM","{'lat': 8.4799997, 'lng': 124.5915966}",124.5915966,8.4799997
15,Sacred Heart of Jesus Parish,"Reyes Village Subd., Bugo, Cagayan De Oro City, Misamis Oriental",0926 136 7195,,,,,"Fri Sep 8, 2023 9:07PM","{'lat': 8.5003405, 'lng': 124.7823648}",124.7823648,8.5003405
16,Saint Ignatius de Loyola Parish,"Camp Evangelista Patag, Cagayan De Oro City, Misamis Oriental",,,,,,"Fri Sep 8, 2023 10:25PM","{'lat': 8.4851979, 'lng': 124.6208382}",124.6208382,8.4851979
17,Saint Joseph the Worker Parish,"P.N. Roa Subd., Calaanan, Canitoan, Cagayan De Oro City, Misamis Oriental",,,,,,"Fri Sep 8, 2023 11:08AM","{'lat': 8.4624441, 'lng': 124.6065022}",124.6065022,8.4624441
18,San Antonio de Padua Parish,"12th St., Nazareth, Cagayan De Oro City, Misamis Oriental",(088) 857 1953,,,,,"Thu Sep 7, 2023 8:56PM","{'lat': 8.4706381, 'lng': 124.6497448}",124.6497448,8.4706381
19,San Guillermo de Maleval Parish,"Iponan, Cagayan De Oro City, Misamis Oriental",,,,,,"Sat Mar 27, 2021 4:27PM","{'lat': 8.495492, 'lng': 124.5998996}",124.5998996,8.495492
20,San Isidro Labrador Parish,"Gusa, Cagayan De Oro City, Misamis Oriental",0917 122 3293,,First Friday: 7PM,,First Friday Mass,"Fri Sep 8, 2023 9:25PM","{'lat': 8.468476599999999, 'lng': 124.6828861}",124.6828861,8.468476599999999
21,San Isidro Labrador Parish (Eco Church),"Eagle Corner Harpy St. ,Kauswagan, Cagayan De Oro City, Misamis Oriental","(088) 881-8794, 0967 946 8208",,,,,"Mon Jul 10, 2023 5:21PM","{'lat': 8.4941966, 'lng': 124.6358702}",124.6358702,8.4941966
22,San Lorenzo Ruiz Parish,"Mega Heights Subdivision, Phase III, Gusa, Cagayan De Oro City, Misamis Oriental",0917 720 3566,,,,,"Fri Sep 8, 2023 8:57PM","{'lat': 8.467021599999999, 'lng': 124.6727905}",124.6727905,8.467021599999999
23,San Nicolas De Tolentino Parish,"Puntod, Cagayan De Oro City, Misamis Oriental",(088) 880-1263,,,,,"Fri Sep 8, 2023 9:48PM","{'lat': 8.4955996, 'lng': 124.6566156}",124.6566156,8.4955996
24,San Vicente Ferrer Parish,"Cugman, Cagayan De Oro City, Misamis Oriental",,,,,,"Fri Sep 8, 2023 9:29PM","{'lat': 8.451334899999999, 'lng': 124.6911804}",124.6911804,8.451334899999999
25,Santo Niño de Oro Parish,"Brgy 31, Pres.Garcia St. Sto.Niño Cogon, Cagayan De Oro City, Misamis Oriental",,,,,,"Fri Sep 8, 2023 9:54PM","{'lat': 8.4760811, 'lng': 124.6540574}",124.6540574,8.4760811
26,Santuario Eucaristico - Sacred Heart Parish,"Rodolfo N. Pelaez Blvd, Cagayan De Oro City, Misamis Oriental",09979615567,"Rev. Fr. Kenny Joe Parlingayan, SSS",,,Also known as the Archdiocesan Shrine of the Holy Eucharist,"Sun Mar 21, 2021 10:02PM","{'lat': 8.4972473, 'lng': 124.6415462}",124.6415462,8.4972473
27,St. Augustine Metropolitan Cathedral,"Barangay 1, Cagayan De Oro City, Misamis Oriental",0935 252 7853,,WEDNESDAY & FRIDAY 4:30PM-5:00PM,,,"Thu Sep 7, 2023 9:12PM","{'lat': 8.4743118, 'lng': 124.6461119}",124.6461119,8.4743118
28,St. Francis Xavier Parish,"Pueblo de Oro, Upper Carmen, Cagayan De Oro City, Misamis Oriental",0917 777 0246,,,,,"Thu Sep 7, 2023 9:17PM","{'lat': 8.4561427, 'lng': 124.6230747}",124.6230747,8.4561427
29,St. John Marie Vianney Parish,"Xavier Heights, Cagayan De Oro City, Misamis Oriental",0967 391 3727,,,,,"Fri Sep 8, 2023 10:58AM","{'lat': 8.4396243, 'lng': 124.621032}",124.621032,8.4396243
0,Ang Muling Pagkabuhay ng Ating Panginoon Parish,"Phase 10-A Pkg. 2, Bagong Silang, Caloocan City, Metro Manila",951-5342,,,,,"Wed Mar 17, 2010 10:43AM","{'lat': 14.7767799, 'lng': 121.0345446}",121.0345446,14.7767799
1,Birhen ng Lourdes Parish,"Malolos Ave., Bagong Barrio, Caloocan City, Metro Manila",363-2681,"Rev. Fr. Alberto G. Cahilig, OMI",By Mass Confession on Seasonal Occasions,,,"Tue Sep 3, 2013 2:30AM","{'lat': 14.6648211, 'lng': 120.9967965}",120.9967965,14.6648211
2,Christ the King Parish,"Ninang Lydia Street.,BF Homes, Novaliches, Caloocan City, Metro Manila",289308764,,,,ctkpbfsocomm@gmail.com,"Mon Nov 28, 2022 2:16PM","{'lat': 14.7328665, 'lng': 121.0239025}",121.0239025,14.7328665
3,Epiphany of the Lord Parish,"San Isidro St., Camarin Rd., Kiko, Camarin, Caloocan City, Metro Manila",(02) 8569-31-71 o 0915-658-89-55,Rev. Fr. Alvin Balean,Anytime upon request,,,"Mon Nov 28, 2022 2:34PM","{'lat': 14.6919923, 'lng': 121.083698}",121.083698,14.6919923
4,Hearts of Jesus and Mary Parish,"L. Nadurata Street between 7th and 8th Avenue, Grace Park, Caloocan City, Metro Manila",283620182,,,,,"Sun Mar 28, 2021 3:16PM","{'lat': 14.6477506, 'lng': 120.9834592}",120.9834592,14.6477506
5,Holy Cross Parish,"Mangga corner Macabud Streets, Amparo Village, Caloocan City, Metro Manila",283661723,,,,,"Sun Apr 28, 2024 9:04PM","{'lat': 14.7533596, 'lng': 121.0806198}",121.0806198,14.7533596
6,Holy Spirit Parish,"Narra St., Pangarap Village, Caloocan City, Metro Manila",0963 308 2434,,,,,"Mon Nov 28, 2022 2:49PM","{'lat': 14.6348767, 'lng': 120.9791062}",120.9791062,14.6348767
7,Ina ng Laging Saklolo Parish,"Phase 7,Bagong Silang, Caloocan City, Metro Manila",,,,,,"Wed Mar 17, 2010 10:43AM","{'lat': 14.7764296, 'lng': 121.0584876}",121.0584876,14.7764296
8,Mary Help of Christian Parish,"J P Rizal Street, Maypajo, Caloocan City, Metro Manila",8288-7284,,,,Devotion Masses,"Sat Dec 3, 2022 11:23PM","{'lat': 14.6380849, 'lng': 120.9733}",120.9733,14.6380849
9,"Mary, Mother of the Church Parish","Cielito Homes, Zabarte Road, Camarin, Caloocan City, Metro Manila",0955 788 7344,,,,,"Sat Nov 12, 2022 11:05PM","{'lat': 14.7478394, 'lng': 121.0499004}",121.0499004,14.7478394
10,Mother of the Redeemer Parish,"Deparo Road, Novaliches, Caloocan City, Metro Manila",8-937-6004,,,,,"Mon Dec 5, 2022 1:13PM","{'lat': 14.7471709, 'lng': 121.0210386}",121.0210386,14.7471709
11,Our Lady of Fatima Parish,"Kumintang cor. Magat Salamat Sts., Urduja Village, Novaliches, Caloocan City, Metro Manila",0929 705 9433,Rev. Fr. Aristeo De Leon,,,FIRST FRIDAY: Holy Hour; 4:30pm | First Friday Mass; 6:00pm,"Mon Dec 5, 2022 1:22PM","{'lat': 14.744224, 'lng': 121.035318}",121.035318,14.744224
12,Our Lady of Lourdes Parish,"1117 Petunia cor Chrysanthemum, Caloocan City, Metro Manila",(02) 962 7954,,,,,"Mon Dec 5, 2022 1:40PM","{'lat': 14.7619129, 'lng': 121.0475307}",121.0475307,14.7619129
13,Our Lady of Peace and Good Voyage Parish,"Paraiso St., Sampaguita Subd.,Bagumbong, Caloocan City, Metro Manila",0926 027 4883,,,,,"Mon Dec 5, 2022 1:49PM","{'lat': 14.768197, 'lng': 121.0345542}",121.0345542,14.768197
14,Our Lady of the Holy Rosary Parish,"Father Hofstee Road, Langit 1, Barrio San Isidro, Tala, Caloocan City, Metro Manila",0921 235 4571,,,,,"Mon Dec 5, 2022 1:57PM","{'lat': 14.7702296, 'lng': 121.0586017}",121.0586017,14.7702296
15,Sacred Heart of Jesus Parish,"Pilar Road, Morning Breeze Subdivision, Caloocan City, Metro Manila",283610570,,,,,"Mon Dec 5, 2022 2:19PM","{'lat': 14.6610196, 'lng': 120.9884221}",120.9884221,14.6610196
16,Sacred Heart Parish,"#350 General Luis, Caybiga, Caloocan City, Metro Manila",286513157,,,,,"Mon Dec 5, 2022 2:25PM","{'lat': 14.7192643, 'lng': 121.0131004}",121.0131004,14.7192643
17,Sagrada Familia Parish,"61 Banal St.6th Ave., Caloocan City, Metro Manila",0968 379 1940,,,,,"Mon Dec 5, 2022 2:34PM","{'lat': 14.6650211, 'lng': 120.9974373}",120.9974373,14.6650211
18,Saint Agnes Parish,"Rosas St. corner Champaca St., Almar Subdivision, Camarin, Caloocan City, Metro Manila",289629004,,,,,"Mon Dec 5, 2022 2:39PM","{'lat': 14.7555233, 'lng': 121.044091}",121.044091,14.7555233
19,Saint Joseph Parish,"1427 St. Joseph Avenue, Barracks II, Tala, Caloocan City, Metro Manila",961-1524,,,,,"Mon Dec 5, 2022 2:49PM","{'lat': 14.7655534, 'lng': 121.0726911}",121.0726911,14.7655534
20,San Exequiel Moreno Parish,"Labahita corner Langaray Street, Phase 2, Kaunlaran Village, Caloocan City, Metro Manila",8-288-9050,Rev  Fr. Dennis Salise,,,,"Mon Dec 5, 2022 4:02PM","{'lat': 14.6482391, 'lng': 120.9620343}",120.9620343,14.6482391
21,San Jose Parish,"Agudo corner Cabatuan Streets, Caloocan City, Metro Manila",8364-46-74,Rev. Fr. Carlos C. Ida,,,,"Mon Dec 5, 2022 5:05PM","{'lat': 14.6375536, 'lng': 120.990484}",120.990484,14.6375536
22,"San Jose, Amang Mapagkalinga Parish","Phase 5, Bagong Silang, Caloocan City, Metro Manila",0977 051 1218,,,,,"Sun Apr 2, 2023 12:52AM","{'lat': 14.7715728, 'lng': 121.0563789}",121.0563789,14.7715728
23,San Roque Cathedral,"A. Mabini Street, Caloocan City, Metro Manila",288-52-52,,Wed and Fri: 6:30PM,,,"Mon Dec 5, 2022 5:31PM","{'lat': 14.646765, 'lng': 120.9738305}",120.9738305,14.646765
24,San Roque Parish,"Phase 9, Bagong Silang, Caloocan City, Metro Manila",,,,,Monday at 3:00PM,"Thu Feb 1, 2024 2:17PM","{'lat': 14.7843852, 'lng': 121.0387222}",121.0387222,14.7843852
25,Santa Cruz Parish,"A-814, Bagumbong Road,Bagumbong, Caloocan City, Metro Manila",8984-3933,,,,,"Mon Dec 5, 2022 9:12PM","{'lat': 14.7511942, 'lng': 121.010124}",121.010124,14.7511942
26,Santo Kristo Parish,"Llano Road, Cor. Del Mundo Ave., Barangay 167 Llano, Caloocan City, Metro Manila",0956 970 2542,,,,,"Mon Dec 5, 2022 9:18PM","{'lat': 14.7325922, 'lng': 121.0124427}",121.0124427,14.7325922
27,Santo Niño de Congreso Parish,"Congressional Road, Caloocan City, Metro Manila",7504-32-22 / 0917-717-3536,,,,PARISH OFFICE HOURS:,"Mon Dec 5, 2022 9:36PM","{'lat': 14.6880636, 'lng': 121.0970964}",121.0970964,14.6880636
28,Shrine of Our Lady Of Grace,"St. Eugene De Mazenod Avenue, Grace Park, Caloocan City, Metro Manila",283644734,,,,,"Mon Dec 5, 2022 1:33PM","{'lat': 14.6560293, 'lng': 120.9715438}",120.9715438,14.6560293
29,St. Francis of Assisi and Sta Quiteria Parish,"Brgy 162. Tullahan Road, Sta. Quiteria, Caloocan City, Metro Manila",984-3063,"Rev. Fr. Rudy Abao,MSC",,,,"Mon Dec 5, 2022 9:43PM","{'lat': 14.6816983, 'lng': 121.0089316}",121.0089316,14.6816983
30,St. Gabriel the Archangel Parish,"Caimito Road, Caloocan City, Metro Manila",(02) 361 8106,,Thursday 5:30pm,,saintgabriel1963@gmail.com,"Mon Dec 5, 2022 9:55PM","{'lat': 14.658856, 'lng': 120.9804601}",120.9804601,14.658856
31,St. Joseph the Workman Parish,"Doña Rita St. cor Laon Laan St., Sampalukan, Caloocan City, Metro Manila",,,Thur: 5PM (Holy Hour and Confession),,sjwp04052022@gmail.com,"Fri Dec 30, 2022 3:22PM","{'lat': 14.6433207, 'lng': 120.9758776}",120.9758776,14.6433207
32,St. Pancratius Parish,"La Loma Cemetery Compound, Caloocan City, Metro Manila",,Rev. Fr. Ardie Ong,,,,"Wed Mar 17, 2010 10:43AM","{'lat': 14.6436755, 'lng': 120.9877692}",120.9877692,14.6436755
33,St. Paul of the Cross Parish,"Phase 8-A Bagong Silang, Caloocan City, Metro Manila",,,,,stpaulcp2015@gmail.com,"Mon Dec 5, 2022 10:07PM","{'lat': 14.7785695, 'lng': 121.0534294}",121.0534294,14.7785695
34,Sto. Niño de Bagong Silang Parish,"Phase 1, Bagong Silang, Caloocan City, Metro Manila",8962-8204,"Fr. Wilfredo Estraza, CP",Friday after 6PM Mass,,,"Mon Dec 5, 2022 9:37PM","{'lat': 14.774208, 'lng': 121.049686}",121.049686,14.774208
0,Alliance Of Two Hearts Parish,"corner of J. Fortich and HorseShoe Drive, Banawa, Cebu City, Cebu",255-3241,,"Mon to Sat: 6-7am, 5-6pm; Sunday: 8-9am, 5-6:30pm",,,"Fri Dec 15, 2023 3:21PM","{'lat': 10.311451, 'lng': 123.883049}",123.883049,10.311451
1,Archdiocesan Shrine of Our Lady of Guadalupe de Cebu (Guadalupe Church),"Guadalupe, Cebu City, Cebu",254-4593,,,,Langub Mass Schedule,"Fri Dec 15, 2023 2:58PM","{'lat': 10.3234205, 'lng': 123.8801952}",123.8801952,10.3234205
2,Archdiocesan Shrine of Our Lady of Lourdes,"F. Llamas St., Punta Princesa, Cebu City, Cebu",(+6332) 261-5393,,Mon-Sat: 5:00PM - 6:00PM,,Mon-Sat,"Mon Apr 10, 2023 8:22PM","{'lat': 10.2955481, 'lng': 123.8698331}",123.8698331,10.2955481
3,Archdiocesan Shrine of San Roque,"Mambaling, Cebu City, Cebu",0949 622 9930,,Wed and Fri: 5:45AM and 5:45PM,,,"Sun Aug 11, 2024 9:52PM","{'lat': 10.288614, 'lng': 123.8788002}",123.8788002,10.288614
4,Archdiocesan Shrine of St. Arnold Janssen,"Janssensite, Basak-San Nicolas, Cebu City, Cebu",236-2290,,,,Holy Hour: Thursday before First Friday at 8PM,"Sat Apr 29, 2023 10:03AM","{'lat': 10.2882313, 'lng': 123.8718252}",123.8718252,10.2882313
5,Archdiocesan Shrine of St. Therese of the Child Jesus,"Pasteur cor. Edison Sts., Lahug, Cebu City, Cebu","233-4964, 0915 120 1783",,,,,"Sun Aug 11, 2024 9:59PM","{'lat': 10.3315516, 'lng': 123.9011532}",123.9011532,10.3315516
6,Ayala Center Cebu,"Chapel at 4th Floor, Ayala Mall, Cebu Business Park, Cebu City, Cebu",,,,,Sto. Niño Novena Mass -  January 11 to 19 at 6:00PM,"Mon Jan 8, 2024 6:10PM","{'lat': 10.318902, 'lng': 123.904035}",123.904035,10.318902
7,Basilica Minore del Sto. Niño,"Osmeña Blvd., Cebu City, Cebu",(32) 255 - 6697 to 99,,,,,"Fri Jan 5, 2024 9:31AM","{'lat': 10.3043122, 'lng': 123.8951679}",123.8951679,10.3043122
8,Blessed Sacrament Parish,"Reclamation Area, Cebu City, Cebu",232-0078,Fr. Wilfredo C. Borces,Just approach Priest,,,"Tue Sep 3, 2013 12:40AM","{'lat': 10.323845, 'lng': 123.9054095}",123.9054095,10.323845
9,Carmelite Monastery,"Juan Luna Ave., Cebu City, Cebu",231-5931,,,,,"Fri Dec 15, 2023 10:59PM","{'lat': 10.3196098, 'lng': 123.9113617}",123.9113617,10.3196098
10,Cebu Archdiocesan Shrine of San Pedro Calungsod,"Archbishop's Residence Compound, D Jakosalem St., Cebu City, Cebu",(032) 255 2170,,,,,"Fri Dec 23, 2022 10:28AM","{'lat': 10.3090326, 'lng': 123.8976891}",123.8976891,10.3090326
11,Cebu Metropolitan Cathedral,"P. Burgos St., Cebu City, Cebu",2558823 / 2536422,,"Wed and Fri: 10AM - 12NN, 4PM -6PM",,,"Sun Aug 11, 2024 10:36PM","{'lat': 10.2949148, 'lng': 123.9033405}",123.9033405,10.2949148
12,Chapel of Our Lady of the Miraculous Medal(Asilo De La Milagrosa),"Gorordo Avenue, Lahug, Cebu City, Cebu",232-2443,,,,,"Sat Apr 29, 2023 10:32PM","{'lat': 10.3247655, 'lng': 123.8982438}",123.8982438,10.3247655
13,Chapel of San Pedro Calungsod,"Church Ave., SM Seaside Complex (SRP), Cebu City, Cebu","(032) 345 8924, 0923-463-1292",,,,,"Sun Aug 11, 2024 10:41PM","{'lat': 10.2817312, 'lng': 123.8806068}",123.8806068,10.2817312
14,Holy Cross Parish,"Basak, Pardo, Cebu City, Cebu",416-3588,,,,,"Fri Apr 28, 2023 11:17PM","{'lat': 10.2854367, 'lng': 123.8648496}",123.8648496,10.2854367
15,Mary Coredemptrix Church,"Talamban, Cebu City, Cebu",0970 153 2912,,By Appointment,,,"Fri Apr 28, 2023 11:19PM","{'lat': 10.3693292, 'lng': 123.9169018}",123.9169018,10.3693292
16,Mary Help of Christians,"Buhisan, Cebu City, Cebu",2621140,,,,,"Sat Nov 28, 2020 11:14AM","{'lat': 10.3149877, 'lng': 123.8495015}",123.8495015,10.3149877
17,Our Lady of Mt. Carmel Parish - Recoletos,"Cor. Magallanes - Leon Kilat Sts., Cebu City, Cebu",253-4396,,"First Fridays, First Saturdays and Sundays before the Mass",,,"Mon May 29, 2023 9:43AM","{'lat': 10.2934271, 'lng': 123.8970143}",123.8970143,10.2934271
18,Our Lady of the Sacred Heart (Capitol Parish),"N. Escario St., Camputhaw, Cebu City, Cebu",255-8516,,Mon-Sat: 4PM  at the Garden Area,,,"Fri Dec 15, 2023 11:16PM","{'lat': 10.3179446, 'lng': 123.8970851}",123.8970851,10.3179446
19,Redemptorist Church,"R. Aboitiz Street, Queen's Road, Cebu City, Cebu",253-6341 / 463-0700 / 0932-1400876 / 0995 691 7894,,"Tue, Thu, Fri and Sat: 9AM-10AM and 3PM-4PM",,,"Sun Aug 11, 2024 10:44PM","{'lat': 10.3129877, 'lng': 123.8964483}",123.8964483,10.3129877
20,Sacred Heart Parish,"D. Jakosalem St., Cebu City, Cebu",316-1781 / 505-6356 / 0917-7054001 / 0917-1025443,,"Wed, Fri and Sat: 530-6PM - Sun: 9AM, 1030AM and 5PM",,,"Sat Apr 29, 2023 9:00AM","{'lat': 10.3023118, 'lng': 123.9005693}",123.9005693,10.3023118
21,San Isidro Labrador Parish,"Talamban, Cebu City, Cebu","344-3378, 0932 592 7809",,Mon-Sat: after the Mass,,,"Sat Apr 29, 2023 9:03AM","{'lat': 10.3693292, 'lng': 123.9169018}",123.9169018,10.3693292
22,San Lorenzo Ruiz Parish,"Tisa, Cebu City, Cebu",261-4850,,Can be done by setting-up for an appointment through our parish office.,,"Office Hours: 9-12PM, 2-6PM","Fri Dec 15, 2023 2:41PM","{'lat': 10.3033603, 'lng': 123.8662448}",123.8662448,10.3033603
23,San Nicolas de Tolentino Parish,"C. Padilla  St., Cebu City, Cebu",261-0848,,,,All Masses  are Livestreamed via Facebook,"Fri Dec 15, 2023 2:29PM","{'lat': 10.2929555, 'lng': 123.8859488}",123.8859488,10.2929555
24,San Pedro Calungsod Parish,"Pulangbato, Cebu City, Cebu",407-0252,,1st Friday: 5:00PM,,Special Masses,"Sat Apr 29, 2023 9:15AM","{'lat': 10.3979941, 'lng': 123.9025114}",123.9025114,10.3979941
25,San Vicente Ferrer Parish,"Sambag 2, Cebu City, Cebu",256-1491 / 256-1492,,,,,"Sat Apr 29, 2023 9:56AM","{'lat': 10.3059021, 'lng': 123.8906566}",123.8906566,10.3059021
26,St. Augustine of Hippo Quasi-Parish,"Lower Inayawan, Cebu City, Cebu",(032) 415 1098,,,,,"Sat May 1, 2021 1:30PM","{'lat': 10.2685582, 'lng': 123.8648496}",123.8648496,10.2685582
27,St. John Paul II Chapel,"4th Floor, Ayala Malls Central Bloc, IT Park, Cebu City, Cebu",(032) 410 8800,,,,,"Sun Aug 11, 2024 10:47PM","{'lat': 10.3306811, 'lng': 123.9073198}",123.9073198,10.3306811
28,St. John XXIII Minore Chapel,"23 Minore Park, Cebu City, Cebu",0947 842 8792,,,,,"Sat Dec 17, 2022 9:47AM","{'lat': 10.3207297, 'lng': 123.9104712}",123.9104712,10.3207297
29,St. Joseph the Patriarch Parish,"Mabolo, Cebu City, Cebu",0923 845 5220,,,,,"Fri Dec 15, 2023 11:13PM","{'lat': 10.3118919, 'lng': 123.9164563}",123.9164563,10.3118919
30,St. Joseph the Worker (Chaplaincy),"ALU, Port Area, Cebu City, Cebu",76147,,,,,"Tue Sep 3, 2013 12:56AM","{'lat': 10.3156992, 'lng': 123.8854366}",123.8854366,10.3156992
31,Sto. Niño Parish,"Guba, Cebu City, Cebu",,,,,,"Sat Apr 29, 2023 10:19AM","{'lat': 10.4283049, 'lng': 123.8913539}",123.8913539,10.4283049
32,Sto. Niño Parish,"Pasil, Cebu City, Cebu",261-0062,,,,,"Sat Apr 29, 2023 10:24AM","{'lat': 10.29094, 'lng': 123.8948408}",123.8948408,10.29094
33,Sto. Rosario Parish,"P. Del Rosario St., Cebu City, Cebu","(032) 273-3114, 0923-6405251, 0995-6370053",,Mon-Sat: 10:30AM - 11:30AM and 4:00PM - 5:00PM,,,"Thu Oct 24, 2024 8:14PM","{'lat': 10.3017, 'lng': 123.90152}",123.90152,10.3017
34,Sto. Tomas de Villanueva Parish,"Pardo, Cebu City, Cebu",(032) 272 6162,,,,Cemetery Masses,"Sat Apr 29, 2023 10:30AM","{'lat': 10.2822578, 'lng': 123.8508969}",123.8508969,10.2822578
35,Virgen delos Remedios Parish,"Labangon -Calamba, Cebu City, Cebu",261-2247,,,,,"Sat Apr 29, 2023 10:37AM","{'lat': 10.3027794, 'lng': 123.8864721}",123.8864721,10.3027794
0,Ascension of the Lord Parish,"GSIS Heights, Matina, Davao City, Davao del Sur",(082) 296 2051,,Every First Thursday of the Month (7:00AM),,,"Fri Dec 15, 2023 10:20PM","{'lat': 7.059551, 'lng': 125.5726361}",125.5726361,7.059551
1,Immaculate Conception Parish,"8022 Mintal, Davao City, Davao del Sur",293-0009,,,,,"Mon May 15, 2023 12:10AM","{'lat': 7.091430399999999, 'lng': 125.4946236}",125.4946236,7.091430399999999
2,Immaculate Conception Parish of Peñaplata,"Peñaplata, Island Garden City of Samal, Davao City, Davao del Sur",,,,,,"Tue Jan 10, 2023 9:21PM","{'lat': 7.074277299999999, 'lng': 125.7161156}",125.7161156,7.074277299999999
3,Our Lady of Fatima Parish,"101 Aurora Quezon St, Poblacion District, Davao City, Davao del Sur",(082) 227 2503,,,,,"Mon May 8, 2023 6:48PM","{'lat': 7.0697246, 'lng': 125.6187353}",125.6187353,7.0697246
4,Our Lady of Guadalupe Parish,"Phase 6 Deca Homes, Tugbok, Davao City, Davao del Sur",,,,,,"Mon May 8, 2023 7:17PM","{'lat': 7.112945099999999, 'lng': 125.4965107}",125.4965107,7.112945099999999
5,Our Lady of Lourdes Parish,"Cordillera Street, Central Park Subdivision, Bangkal, Davao City, Davao del Sur",,,,,,"Mon May 8, 2023 7:21PM","{'lat': 7.055879, 'lng': 125.5558413}",125.5558413,7.055879
6,Our Lady of the Assumption Parish,"F. Torres Street, Davao City, Davao del Sur","227-4043, 0966-3045442",,,,,"Mon May 8, 2023 7:22PM","{'lat': 7.0785665, 'lng': 125.606912}",125.606912,7.0785665
7,Our Mother of Perpetual Help Parish (Redemptorist Church),"J. P. Laurel Ave., Bajada, Davao City, Davao del Sur","(082) 224 0476 / 224-0478, 0917 100 8433",,Tue-Fri: -4:30PM to 5:30PM,,,"Fri Dec 15, 2023 8:21AM","{'lat': 7.0782333, 'lng': 125.6140069}",125.6140069,7.0782333
8,Sacred Heart of Jesus Parish,"N. Torres St., Bo. Obrero, Davao City, Davao del Sur",227-6397; 305-2329,,,,,"Tue Jan 10, 2023 9:48PM","{'lat': 7.085991, 'lng': 125.613566}",125.613566,7.085991
9,Sacred Heart of Jesus Parish of Calinan,"Datu Abing Street, Calinan, Davao City, Davao del Sur",(082) 295-0176,,,,,"Tue Jan 10, 2023 9:55PM","{'lat': 7.1867493, 'lng': 125.4551526}",125.4551526,7.1867493
10,Saint Francis of Assisi Parish,"Maa, Davao City, Davao del Sur",(082) 299 2072,,,,,"Sat Aug 6, 2022 5:40PM","{'lat': 7.0837708, 'lng': 125.5821994}",125.5821994,7.0837708
11,San Alfonso de Ligouri Parish,"Mandug, Davao City, Davao del Sur",082-300-6617,"Rev. Fr. Jemasol R. Ortiz, DCD",,,,"Mon May 15, 2023 12:11AM","{'lat': 7.1559759, 'lng': 125.5821994}",125.5821994,7.1559759
12,San Antonio de Padua Parish - Agdao,"Holy Cross Drive, Brgy. San Antonio, Agdao, Davao City, Davao del Sur",(082) 226 3652,,,,Wednesday: 5PM Perpetual Novena to Our Mother of Perpetual Help,"Mon Apr 12, 2021 4:55PM","{'lat': 7.0892262, 'lng': 125.6281688}",125.6281688,7.0892262
13,San Francisco de Asis,"Barangay Tagakpan, Tugbok District, Davao City, Davao del Sur",0912 662 9846,,,,,"Mon May 15, 2023 12:18AM","{'lat': 7.126014199999999, 'lng': 125.4313467}",125.4313467,7.126014199999999
14,San Isidro Labrador Parish,"Catalunan Grande, Davao City, Davao del Sur",298-3097,,,,,"Sat Sep 7, 2013 9:33AM","{'lat': 7.087601599999999, 'lng': 125.5384234}",125.5384234,7.087601599999999
15,San Isidro Labrador Parish,"Lumondao, Marilog District, Davao City, Davao del Sur",,,,,,"Mon May 15, 2023 12:23AM","{'lat': 7.277804000000001, 'lng': 125.3105347}",125.3105347,7.277804000000001
16,San Lorenzo Ruiz Parish,"Talomo, Davao City, Davao del Sur",297-1579,,,,,"Mon May 15, 2023 12:34AM","{'lat': 7.054708, 'lng': 125.5455756}",125.5455756,7.054708
17,San Miguel Parish,"Km. 14, Panacan, Davao City, Davao del Sur",(082) 238 3386,,,,,"Mon May 15, 2023 8:37PM","{'lat': 7.1511587, 'lng': 125.6487664}",125.6487664,7.1511587
18,San Miguel Parish,"Marahan, Davao City, Davao del Sur",,,,,,"Mon May 15, 2023 8:18PM","{'lat': 7.4137622, 'lng': 125.2483091}",125.2483091,7.4137622
19,San Pablo Parish,"Juna Subdivision, Matina, Davao City, Davao del Sur",296-2824 & 299-4155,,,,,"Thu Dec 15, 2022 9:03PM","{'lat': 7.0747672, 'lng': 125.5651028}",125.5651028,7.0747672
20,San Pedro Cathedral,"San Pedro Street, Davao City, Davao del Sur",(082) 226-4740; Fax: (082) 221-0191,,"every Wed & Fri,5:30-6:30",,,"Sat Mar 25, 2023 7:31PM","{'lat': 7.0650584, 'lng': 125.608508}",125.608508,7.0650584
21,San Pedro Poveda Parish,"Km. 11, Brgy. Catalunan Pequeño, Talomo District, Davao City, Davao del Sur",0970 886 7766,,,,,"Sun May 14, 2023 11:57PM","{'lat': 7.075947, 'lng': 125.5181453}",125.5181453,7.075947
22,San Roque Parish,"Malabog, Paquibato District, Davao City, Davao del Sur",,,,,,"Mon May 15, 2023 8:27PM","{'lat': 7.3319482, 'lng': 125.4091967}",125.4091967,7.3319482
23,Shrine of the Holy Infant Jesus of Prague,"Shrine Hills, Matina, Davao City, Davao del Sur",,,,,,"Thu Mar 31, 2022 3:45PM","{'lat': 7.066129699999999, 'lng': 125.5791509}",125.5791509,7.066129699999999
24,St. Francis of Assisi Parish,"La Verna Hills Subd., Davao City, Davao del Sur",284-4882,Rev. Fr. Pedro Lamata,,,,"Thu Dec 22, 2022 9:40PM","{'lat': 7.1222422, 'lng': 125.6341245}",125.6341245,7.1222422
25,St. Francis Xavier Parish,"Purok 2, Tibungco, Davao City, Davao del Sur",082) 238 0162,,,,,"Mon May 15, 2023 8:33PM","{'lat': 7.196282500000001, 'lng': 125.6368861}",125.6368861,7.196282500000001
26,St. James the Apostle Parish,"8017 Bunawan, Davao City, Davao del Sur",236-0120,Rev. Fr. Jovilo Jonathan Bonggay,,,,"Wed Mar 17, 2010 10:43AM","{'lat': 7.224728799999999, 'lng': 125.6408633}",125.6408633,7.224728799999999
27,St. John the Baptist Parish,"Lasang, Davao City, Davao del Sur",0956 816 5622,,,,,"Mon May 15, 2023 8:40PM","{'lat': 7.2666242, 'lng': 125.6587503}",125.6587503,7.2666242
28,St. Joseph the Worker Parish,"Sasa, Davao City, Davao del Sur",0925-799-2838 or 0905-513-6319 or 322-0283,,,,,"Fri Sep 9, 2022 5:50PM","{'lat': 7.1296259, 'lng': 125.6505519}",125.6505519,7.1296259
29,St. Jude Parish,"Malvar Street, Davao City, Davao del Sur",(082) 227 5402,,,,,"Sun Mar 26, 2023 10:51AM","{'lat': 7.0722844, 'lng': 125.6023659}",125.6023659,7.0722844
30,St. Mary of the Perpetual Parish,"Buhangin, Davao City, Davao del Sur",241-0438,Fr. Pedro Lamata,Sat. & Sun: 4:00PM,,,"Sat Aug 6, 2022 5:25PM","{'lat': 7.1590395, 'lng': 125.5986093}",125.5986093,7.1590395
31,Sta. Ana Shrine Parish,"Sta. Ana Avenue, Davao City, Davao del Sur",227-3842,,,,,"Tue May 3, 2022 10:39PM","{'lat': 7.0769237, 'lng': 125.6195339}",125.6195339,7.0769237
32,Sto. Niño Parish - Kaputian,"Island Garden City of Samal, Davao City, Davao del Sur",,,,,,"Mon May 15, 2023 8:48PM","{'lat': 7.103312, 'lng': 125.7188463}",125.7188463,7.103312
33,Sto. Rosario Parish - Toril,"Juan Dela Cruz Street, Davao City, Davao del Sur",291-0635; 291-4353,,,,,"Mon May 15, 2023 8:52PM","{'lat': 7.0106345, 'lng': 125.5027861}",125.5027861,7.0106345
34,The Holy Family Parish,"Brgy. Baliok, Davao City, Davao del Sur",,,,,,"Sun May 14, 2023 11:44PM","{'lat': 7.0468639, 'lng': 125.5006627}",125.5006627,7.0468639
0,Holy Cross Parish,"Calumpang, General Santos City, South Cotabato","(083) 822-1583, 0945-314-3820, 0981-106-3820",,,,Baptism: Sunday @ 11:00am,"Sat Sep 16, 2023 10:30AM","{'lat': 6.072172900000001, 'lng': 125.1323788}",125.1323788,6.072172900000001
1,Our Lady of Fatima Parish,"Purok 12, NASA Village, Barangay Fatima, General Santos City, South Cotabato",(083) 552 2534,,,,,"Mon May 1, 2023 8:48PM","{'lat': 6.074654799999999, 'lng': 125.1150573}",125.1150573,6.074654799999999
2,Our Lady of Peace and Good Voyage,"General Santos City, General Santos City, South Cotabato",12345678,,Friday: 6:30 - 7:30 pm,,,"Sun Aug 2, 2020 3:30PM","{'lat': 6.1163861, 'lng': 125.171618}",125.171618,6.1163861
3,St. Francis of Assisi Parish,"Barangay Mabuhay, General Santos City, South Cotabato",,,,,,"Sat Sep 16, 2023 10:11AM","{'lat': 6.227597299999999, 'lng': 125.1378792}",125.1378792,6.227597299999999
4,St. Gabriel of Our Lady of Sorrows Parish,"Marcos Ave., Apopong, General Santos City, South Cotabato","500-9657, 0963-233-2151",,Fri: 5PM,,,"Mon May 1, 2023 3:27PM","{'lat': 6.1338242, 'lng': 125.1299121}",125.1299121,6.1338242
5,St. Michael the Archangel Parish,"Yumang St., Zaldivar Subd., City Heights, General Santos City, South Cotabato",0991 793 3013,,,,Baptism: Sunday 10:30AM,"Mon May 1, 2023 3:03PM","{'lat': 6.1316314, 'lng': 125.1676448}",125.1676448,6.1316314
6,Sto. Niño de Bula Parish,"Bula, General Santos City, South Cotabato",,,,,,"Sun Mar 28, 2021 4:47PM","{'lat': 6.105264099999999, 'lng': 125.1956117}",125.1956117,6.105264099999999
7,Sts. Peter and Paul Parish (Lagao Parish),"San Pablo St., Lagao, General Santos City, South Cotabato",(083) 500 2012,,,,,"Tue Jan 24, 2023 10:21AM","{'lat': 6.1247117, 'lng': 125.1946342}",125.1946342,6.1247117
0,Birhen Sa Sto. Rosario Parish,"Tipanoy, Iligan City, Lanao del Norte",,,,,,"Mon May 1, 2023 9:44AM","{'lat': 8.1988409, 'lng': 124.2504956}",124.2504956,8.1988409
1,Corpus Christi Parish,"Corpus Christi Street, Tubod, Iligan City, Lanao del Norte",(063) 221-2794,,,,,"Tue Sep 12, 2023 8:03PM","{'lat': 8.2166667, 'lng': 124.2375}",124.2375,8.2166667
2,Immaculate Conception Parish,"Bahayan, Luinab, Iligan City, Lanao del Norte",,,,,,"Mon May 1, 2023 9:01AM","{'lat': 8.2467579, 'lng': 124.2711079}",124.2711079,8.2467579
3,Lord of the Holy Cross Parish,"Isabel Village, Palao, Iligan City, Lanao del Norte",(063) 221 8862,,,,,"Sun Apr 30, 2023 9:13PM","{'lat': 8.225692000000002, 'lng': 124.2576127}",124.2576127,8.225692000000002
4,Our Lady of Fatima Parish,"Digkilaan , Iligan City, Lanao del Norte",,,,,,"Mon May 1, 2023 9:57AM","{'lat': 8.2020115, 'lng': 124.5306837}",124.5306837,8.2020115
5,Our Mother of Perpetual Help Church (Redemptorist Church),"Maria Cristina Subdivision, Iligan City, Lanao del Norte",(063) 221 5701,,Tue-Sat: 4:30PM - 5:15PM,,,"Sun Sep 10, 2023 10:57PM","{'lat': 8.1824032, 'lng': 124.2032483}",124.2032483,8.1824032
6,Resurrection Of the Lord Parish,"Lanao Chung Hua Rd, Iligan City, Lanao del Norte",(063) 221 1269,,,,,"Mon May 1, 2023 9:37AM","{'lat': 8.2300201, 'lng': 124.2535942}",124.2535942,8.2300201
7,San Isidro Labrador Parish,"Buru-un, Iligan City, Lanao del Norte",0953 273 9297,,,,,"Mon May 1, 2023 8:14AM","{'lat': 8.1824675, 'lng': 124.178225}",124.178225,8.1824675
8,San Jose Obrero Parish,"Road 22, Purok 2, Barangay Sta Elena, Iligan City, Lanao del Norte",(063) 492 2740,,,,,"Mon May 1, 2023 8:23AM","{'lat': 8.2367407, 'lng': 124.2421839}",124.2421839,8.2367407
9,San Lorenzo Ruiz Parish,"Tambo, Hinaplanon, Iligan City, Lanao del Norte",0632211626,,,,,"Mon May 1, 2023 8:35AM","{'lat': 8.2440135, 'lng': 124.2591197}",124.2591197,8.2440135
10,San Pedro Calungsod Parish,"Kabacsanan, Iligan City, Lanao del Norte",,,,,,"Sun Sep 10, 2023 11:04PM","{'lat': 8.2753122, 'lng': 124.3032719}",124.3032719,8.2753122
11,San Roque Parish,"Kiwalan, Iligan City, Lanao del Norte",0956 480 0901,,,,,"Sun Apr 30, 2023 9:38PM","{'lat': 8.2972109, 'lng': 124.2699432}",124.2699432,8.2972109
12,St. Michael's Cathedral,"Iligan City, Lanao del Norte",0916 590 0443,,,,,"Wed Apr 5, 2023 11:16AM","{'lat': 8.228020899999999, 'lng': 124.2452422}",124.2452422,8.228020899999999
13,St. Vincent Ferrer Parish,"Zone Pisces 1, Suarez, Iligan City, Lanao del Norte",229-6813,,,,,"Mon May 1, 2023 9:17AM","{'lat': 12.6678893, 'lng': 123.9881393}",123.9881393,12.6678893
0,National Shrine of Our Lady of Candles Parish (Jaro Cathedral),"Rizal Street, Jaro, Iloilo City, Iloilo",(033) 329 1625,,,,,"Mon Dec 11, 2023 11:22PM","{'lat': 10.7240041, 'lng': 122.5569286}",122.5569286,10.7240041
1,Espousal of Our Lady Parish,"Mandurriao, Iloilo City, Iloilo",(033) 321 0030,,approach the priest immediately after the Regular Mass schedules for individual confessions.,,,"Wed Jun 28, 2023 3:00PM","{'lat': 10.7185861, 'lng': 122.547669}",122.547669,10.7185861
2,Immaculate Conception Tanza Parish,"Ledesma Street, Iloilo City, Iloilo",(033) 500 0426,,,,,"Wed Jun 28, 2023 4:02PM","{'lat': 10.6950532, 'lng': 122.5642491}",122.5642491,10.6950532
3,Our Lady of the Miraculous Medal Parish,"Calumpang, Iloilo City, Iloilo",0923 439 1543,,,,,"Wed Jun 28, 2023 3:12PM","{'lat': 10.6843067, 'lng': 122.5358599}",122.5358599,10.6843067
4,Parish of Nuestra Señora Del Pilar,"M. H. Del Pilar, Jaro, Iloilo City, Iloilo","0929 155 1139, 329-3244",,,,,"Wed Jun 28, 2023 3:55PM","{'lat': 10.722353, 'lng': 122.563442}",122.563442,10.722353
5,Pavia Parish Church,"Pavia, Iloilo City, Iloilo",329-28-11,,,,,"Wed Jun 28, 2023 3:14PM","{'lat': 10.7603368, 'lng': 122.5259596}",122.5259596,10.7603368
6,Saint Joseph the Worker Parish,"Brgy. San Isidro, Iloilo City, Iloilo","0999 995 9203, (033) 329-0081",,,,,"Wed Jun 28, 2023 8:41PM","{'lat': 10.7360776, 'lng': 122.5461364}",122.5461364,10.7360776
7,San Jose Parish Placer,"#1 San Jose de Calasanz St., Plaza Libertad, Iloilo City, Iloilo",(033) 336-4802,,,,,"Wed Jun 28, 2023 3:45PM","{'lat': 10.6925707, 'lng': 122.5737112}",122.5737112,10.6925707
8,San Lorenzo Ruiz Parish,"Caingin, Iloilo City, Iloilo",,,,,,"Wed Jun 28, 2023 8:07PM","{'lat': 10.7186845, 'lng': 122.5753987}",122.5753987,10.7186845
9,Santa Maria Chinese-Filipino Parish,"139 Gen. Blanco Street, Maria Clara, Iloilo City, Iloilo","0966 497 8682,  338-2245",,,,,"Wed Dec 13, 2023 8:52AM","{'lat': 10.6905489, 'lng': 122.5703486}",122.5703486,10.6905489
10,Shrine and Parish of Our Lady of Fatima,"Phase 5, Alta Tierra Village, Jaro, Iloilo City, Iloilo","320-5565, 0917 578 7004",,30 minutes before daily and Sunday Masses or by appointment,,,"Wed Jun 28, 2023 3:08PM","{'lat': 10.7405398, 'lng': 122.5687209}",122.5687209,10.7405398
11,St. Clement's Church (Redemptorists Church-Iloilo),"Luna St., La Paz, Iloilo City, Iloilo",320-0717 / 320-7928,,,,,"Wed Jun 28, 2023 3:25PM","{'lat': 10.7111402, 'lng': 122.5654896}",122.5654896,10.7111402
12,Sta. Ana Parish (Molo Church),"Jocson St., Molo, Iloilo City, Iloilo",(033) 337 2258,,after every Mass,,,"Wed Jun 28, 2023 3:39PM","{'lat': 10.6888371, 'lng': 122.5264386}",122.5264386,10.6888371
13,Sta. Teresita Del Niño Jesus Parish,"J. De Leon St., Iloilo City, Iloilo","033-335-0093, (033) 320 5711",,,,,"Wed Jun 28, 2023 3:29PM","{'lat': 10.6933678, 'lng': 122.5654086}",122.5654086,10.6933678
0,Our Lady of Fatima Parish,"#10 Matumbo-Pusok Road, Lapu-lapu City (Opon), Cebu",(032) 261 9472,,Wed & Fri - 5:00 PM-6:00 PM,,,"Thu Apr 27, 2023 11:52PM","{'lat': 10.320173, 'lng': 123.9741729}",123.9741729,10.320173
1,Our Lady of Peace and Good Voyage Chapel,"Brigadier General Benito N. Ebuen Air Base, Lapu-lapu City (Opon), Cebu",not available,,,,"WEDDING INTERVIEW: Wednesday - 3pm
BAPTISM
 - Pre-Jordan Seminar - 3pm
 - Baptism Rites - 10:30am","Sun Oct 26, 2014 11:19PM","{'lat': 10.310857, 'lng': 123.965332}",123.965332,10.310857
2,Our Lady of the Sacred Heart Parish,"Marigondon, Lapu-lapu City (Opon), Cebu",236-8337 / 0968-695-7166,,Wed and Fri: 4PM-5PM,,1st Friday 4PM-5PM: Holy Hour,"Fri Apr 28, 2023 10:09PM","{'lat': 10.2757142, 'lng': 123.9777887}",123.9777887,10.2757142
3,Our Mother of Perpetual Help Parish,"Babag, Lapu-lapu City (Opon), Cebu",(032) 340 7266,,,,"Office hours: 8:30 AM - 5:00 PM
Tel. no.: 340 7266","Fri Apr 28, 2023 9:42PM","{'lat': 10.283829, 'lng': 123.9499154}",123.9499154,10.283829
4,Sacred Heart Parish,"Pajac, Lapu-lapu City (Opon), Cebu","0999-1950479, 0992-5573741",,Wed & Fri 5:00 PM,,"Baptism - Sunday, 11:30am
Sick Call/Blessing/Wedding - by arrangement","Fri Apr 28, 2023 9:45PM","{'lat': 10.2998522, 'lng': 123.9875424}",123.9875424,10.2998522
5,St. Augustine Parish,"Sta. Rosa, Olango Island, Lapu-lapu City (Opon), Cebu",,,Confession is always available every Holy Hour,,"Holy Hour
Friday after 4pm mass","Fri Apr 28, 2023 10:12PM","{'lat': 10.2612863, 'lng': 124.0488272}",124.0488272,10.2612863
6,St. Therese of Lisieux (The Millenium Saint),"IAU Pajac, Lapu-lapu City (Opon), Cebu",Not available,"Rev. Fr. Rodolfo A. Bugna, OSA",,,,"Tue Oct 21, 2014 10:52AM","{'lat': 10.2928653, 'lng': 123.9762703}",123.9762703,10.2928653
7,Sto. Niño Parish,"Mactan, Lapu-lapu City (Opon), Cebu",(032) 492 1841,,,,Office Hours:,"Sat Aug 6, 2022 9:09PM","{'lat': 10.2990463, 'lng': 123.9638531}",123.9638531,10.2990463
8,Virgin De La Regla Parish,"B.M. Dimataga St., Poblacion, Lapu-lapu City (Opon), Cebu",(032) 501 9594,,"Starts at 4:00PM, Wed and Fri",,,"Thu Dec 14, 2023 8:12PM","{'lat': 10.3137107, 'lng': 123.9499976}",123.9499976,10.3137107
0,Christ the King Parish,"San Isidro Subd., Pamplona, Las Piñas City, Metro Manila",288740640,,,,,"Mon Jun 5, 2023 8:41AM","{'lat': 14.4601917, 'lng': 120.9686307}",120.9686307,14.4601917
1,Diocesan Shrine and Parish of St. Joseph (Bamboo Organ Church),"Padre Diego Cera Avenue, Brgy. Daniel Fajardo, Las Piñas City, Metro Manila",288285315,,,,,"Mon Jun 5, 2023 8:01PM","{'lat': 14.4806652, 'lng': 120.9814876}",120.9814876,14.4806652
2,Five Wounds of Our Lord Parish,"364 Real Street (Alabang-Zapote Road), Talon, Las Piñas City, Metro Manila","801-4020, 800-1456",,,,,"Sat Jul 15, 2023 6:01PM","{'lat': 14.427575, 'lng': 121.0236753}",121.0236753,14.427575
3,Good Shepherd Parish,"Sanggumay Street, Doña Manuela Subdivision, Las Piñas City, Metro Manila",8873-5837,,,,,"Mon Jun 5, 2023 6:33PM","{'lat': 14.4607879, 'lng': 120.9773251}",120.9773251,14.4607879
4,Holy Family Parish,"CRM Ave. Cor. Dulce, BF Homes, Almanza, Las Piñas City, Metro Manila",0977 106 0680,,,,,"Sun Jun 4, 2023 8:15AM","{'lat': 14.409808, 'lng': 121.0118047}",121.0118047,14.409808
5,Immaculate Conception Parish,"Gatchalian Subd., Manuyo Dos, Las Piñas City, Metro Manila",285711097,,,,,"Mon Jun 5, 2023 7:09PM","{'lat': 14.4736658, 'lng': 120.9931508}",120.9931508,14.4736658
6,Last Supper of Our Lord Parish,"Manila Times Village, Las Piñas City, Metro Manila",288724392,,,,,"Mon Jun 5, 2023 7:18PM","{'lat': 14.448308, 'lng': 120.9849747}",120.9849747,14.448308
7,Madonna Del Divino Amore Quasi-Parish,"Ayala Southvale Dr, Almanza Dos, Las Piñas City, Metro Manila",284754402,,,,,"Wed Apr 26, 2023 9:11PM","{'lat': 14.4025291, 'lng': 121.0056777}",121.0056777,14.4025291
8,Mary Immaculate Parish,"Apollo III, Moonwalk Village, Las Piñas City, Metro Manila",288017806,,by appointment,,Chapel Masses,"Mon Jun 5, 2023 7:34PM","{'lat': 14.426785, 'lng': 120.9968999}",120.9968999,14.426785
9,"Mary, Mother of the Church Parish","Capitoline Hill, BF Resort Village, Talon Dos, Las Piñas City, Metro Manila",288739287,,Tue-Fri: 5:30PM,,,"Mon Jun 5, 2023 7:43PM","{'lat': 14.4266577, 'lng': 120.9911135}",120.9911135,14.4266577
10,Our Lady of Fatima Parish,"Our Lady of Fatima Avenue, Philamlife Village, Pamplona 2, Las Piñas City, Metro Manila",8777-9535,Rev. Fr. Rodel Paulino,Every after the mass from Mondays to Saturdays only,,Holy Hour 5:00pm every Friday (FB Live),"Mon Mar 28, 2022 9:33AM","{'lat': 14.4492077, 'lng': 120.9755182}",120.9755182,14.4492077
11,Our Lady of the Pillar Parish,"Mercury Rd., Pilar Village, Las Piñas City, Metro Manila",288061555,Rev. Fr. Gerard Vicente B. Mascarina,,,,"Mon Jun 5, 2023 7:51PM","{'lat': 14.4196066, 'lng': 121.0069432}",121.0069432,14.4196066
12,Saint Joseph the Worker Parish,"Mariposa cor. Georgia St, Talon 3, Las Piñas City, Metro Manila",284017051,,,,Sunday Chapel Masses,"Mon Jun 5, 2023 8:08PM","{'lat': 14.4471909, 'lng': 121.0004863}",121.0004863,14.4471909
13,San Ezekiel Moreno Oratory,"C-5 Extension, Pulanglupa, Las Piñas City, Metro Manila",288285316,,,,,"Sun Nov 13, 2022 10:45AM","{'lat': 14.4741943, 'lng': 120.9779886}",120.9779886,14.4741943
14,San Isidro Labrador Parish,"Zodiac Avenue, Veraville Homes, Almanza Uno, Las Piñas City, Metro Manila",(02) 8008679,,Tuesday - Saturday 5:30pm to 6:15pm,,,"Mon Jun 5, 2023 8:13PM","{'lat': 14.4297526, 'lng': 121.0107085}",121.0107085,14.4297526
15,Sto. Cristo Parish,"Gen. Lim cor. Gen. Ricarte Sts., Soldiers Hills 2 Subdivision, Almanza Uno, Las Piñas City, Metro Manila",288054081,,,,,"Mon Jun 5, 2023 8:17PM","{'lat': 14.4107063, 'lng': 120.9966995}",120.9966995,14.4107063
0,Holy Face of Jesus Parish - Sta. Veronica Church,"Madrid St, University Village, Ibabang Dupay, Lucena City, Quezon",,,,,,"Sat Apr 29, 2023 8:10PM","{'lat': 13.9519495, 'lng': 121.6220229}",121.6220229,13.9519495
1,Our Lady of Lourdes Parish,"38 Nadres St, Ibabang Iyam, Lucena City, Quezon","(042) 373-1479, 0999-199-3513",,,,,"Sat Apr 29, 2023 7:24PM","{'lat': 13.9317894, 'lng': 121.6043818}",121.6043818,13.9317894
2,Our Lady of Penafrancia Parish and Diocesan Shrine,"Capistrano Subdivision, Brgy. Gulang-gulang, Lucena City, Quezon",0942 373 3429,,,,,"Sat Apr 29, 2023 7:37PM","{'lat': 13.9575476, 'lng': 121.6054177}",121.6054177,13.9575476
3,Parish and Shrine of St.Jude Thaddeus,"Quezon Avenue Extention,Barangay Cotta, Lucena City, Quezon",(042797) 0917,,3:30pm  - Thursday,,Office Hours,"Sat Apr 29, 2023 7:59PM","{'lat': 13.9172047, 'lng': 121.6066326}",121.6066326,13.9172047
4,Saint Ferdinand Cathedral,"Quezon Avenue, Lucena City, Quezon",(042) 710 7573,,Mon-Fri: 7AM and 5PM,,,"Sat Apr 29, 2023 7:10PM","{'lat': 13.9406201, 'lng': 121.6134092}",121.6134092,13.9406201
5,St. Isidore Parish,"Ibabang Dupay, Lucena City, Quezon",,,,,,"Sun Apr 30, 2023 8:41AM","{'lat': 13.9480902, 'lng': 121.6254575}",121.6254575,13.9480902
6,St. Raphael The Archangel Parish,"Dalahican, Lucena City, Quezon",0928 960 3778,,,,,"Sat Apr 29, 2023 7:24PM","{'lat': 13.9087706, 'lng': 121.6140476}",121.6140476,13.9087706
0,Asian Institute of Management Chapel,"Asian Institute of Management, Makati City, Metro Manila",892 4011,,,,,"Sat Nov 19, 2011 3:42AM","{'lat': 14.552473, 'lng': 121.018728}",121.018728,14.552473
1,Holy Cross Parish,"211 J. P. Rizal St., Makati City, Metro Manila",(02) 896 0718,,Monday to Friday before and after Mass,,Additional Masses,"Sun Sep 18, 2022 12:40PM","{'lat': 14.572946, 'lng': 121.013387}",121.013387,14.572946
2,Holy Family Parish,"2777 Faraday St., San Isidro, Makati City, Metro Manila",88430811,Rev. Fr. Danilo A. Canceran,,,,"Sat May 29, 2021 12:45PM","{'lat': 14.554827, 'lng': 121.007661}",121.007661,14.554827
3,Makati Medical Center Chapel,"Amorsolo St. Legaspi Village 9th floor, Makati City, Metro Manila",88888999 local 2910,,,,,"Wed Jun 5, 2024 8:31PM","{'lat': 14.5370905, 'lng': 121.0222793}",121.0222793,14.5370905
4,Mary Mother of Hope Chapel (Landmark Chapel),"5th Floor, The Landmark Makati Commercial Center, Ayala Center, Makati City, Metro Manila",804-37-27,,,,,"Sun Mar 26, 2023 11:03AM","{'lat': 14.5522351, 'lng': 121.0235466}",121.0235466,14.5522351
5,"Mary, Help of Christians Chapel","Estrella St. (beside PTT Gas Station), Brgy. Bangkal, Makati City, Metro Manila",none,,,,,"Mon Mar 28, 2016 11:13PM","{'lat': 14.5642476, 'lng': 121.0101845}",121.0101845,14.5642476
6,"Mary, Mirror of Justice","Agusho St. Cor. Anahaw St., Brgy. Comembo, Makati City, Metro Manila",883-4332,Rev. Fr. Jose Joel O. Jason,,,Holy Hour at 6AM  every First Friday,"Fri Dec 4, 2020 8:51PM","{'lat': 14.5490561, 'lng': 121.0655322}",121.0655322,14.5490561
7,Mater Dolorosa Parish,"19th Ave., East Rembo, Makati City, Metro Manila",757-5704,"Fr. Joel Mosura, TC","Weekdays 5:30 p.m. - 6:00 p.m. , Sat and Sun 5:00 p.m. - 6:00 p.m.",,,"Wed Sep 4, 2013 1:46PM","{'lat': 14.5539048, 'lng': 121.0619597}",121.0619597,14.5539048
8,National Shrine of Our Lady of Guadalupe,"1923 Orense St. , Guadalupe Nuevo, Makati City, Metro Manila",88821814,,"Mon-Sat: 11AM-12NN and 5:30PM-6:30PM, Sun: 30 mins. before Masses starting 8AM Mass",,,"Sun Dec 17, 2023 7:32AM","{'lat': 14.5615541, 'lng': 121.0454919}",121.0454919,14.5615541
9,National Shrine of the Sacred Heart of Jesus,"4 Sacred Heart St., San Antonio Village, Makati City, Metro Manila",288956331,,30 minutes before every Mass,,,"Sat Dec 16, 2023 9:48AM","{'lat': 14.5640163, 'lng': 121.0140454}",121.0140454,14.5640163
10,Nuestra Señora De Gracia Parish,"7440 Bernardino St. Guadalupe Viejo, Makati City, Metro Manila",896-8444,,,,,"Wed Sep 4, 2013 1:46PM","{'lat': 14.566475, 'lng': 121.043342}",121.043342,14.566475
11,Our Lady of Fatima Parish,"1120 Rodriguez Ave. cor. Capinpin St . Bangkal, Makati City, Metro Manila",751-5721,Rev. Fr. Edison Escario.FYI,,,,"Mon Apr 30, 2018 3:09PM","{'lat': 14.5419578, 'lng': 121.0144714}",121.0144714,14.5419578
12,Our Lady of La Paz Parish,"1562 Archimedes St., cor Flordeliz St., Brgy. La Paz, Makati City, Metro Manila",899-3054 / 899-4010,"Fr. Gabriel V. Garcia, MI",weekdays 5:30 pm and Sunday before every mass,,Office Hours:,"Mon May 9, 2016 9:44PM","{'lat': 14.5684965, 'lng': 121.0084227}",121.0084227,14.5684965
13,Our Lady of La Paz Parish,"1562 Archimedes St., cor Flordeliz St., Brgy. La Paz, Makati City, Metro Manila",899-3054 / 899-4010,"Fr. Gabriel V. Garcia, MI",weekdays 5:30 pm and Sunday before every mass,,,"Wed Dec 15, 2021 5:25PM","{'lat': 14.5684965, 'lng': 121.0084227}",121.0084227,14.5684965
14,Parish of the Holy Cross,"211 J. P. Rizal St.,, Makati City, Metro Manila",(02) 896-0718,Fr. Jason H. Laguerta,Before and after every Mass,,Adoration Chapel: Monday to Saturday 7:00pm-6:00pm,"Sun Feb 8, 2015 2:53AM","{'lat': 14.572946, 'lng': 121.013387}",121.013387,14.572946
15,Sacred Heart of Jesus Chapel (Power Plant Mall Chapel),"Rockwell Drive corner Estrella Street, Makati City, Metro Manila",0917 884 3606,,Sat: 4-6PM,,,"Thu Dec 14, 2023 8:20PM","{'lat': 14.5629736, 'lng': 121.0390755}",121.0390755,14.5629736
16,San Ildefonso Parish,"A. Arnaiz Ave. cor. M. Reyes St., Pio del Pilar, Makati City, Metro Manila",843-7351,"Fr. Remo Bati, SDB",,,,"Sat May 14, 2016 7:38PM","{'lat': 14.5508775, 'lng': 121.0094602}",121.0094602,14.5508775
17,Santuario de San Antonio,"McKinley Road, Forbes Park, Makati City, Metro Manila","02)8843-8830, (02)8843-8831, (02)8843-8832",,Daily: 5-6PM at St. Bernardine Room,,Village Masses:,"Sat Aug 6, 2022 3:32PM","{'lat': 14.5474806, 'lng': 121.0379064}",121.0379064,14.5474806
18,St. Alphonsus Mary de Liguori Parish,"Humabon Place, Barangay Magallanes, Makati City, Metro Manila",+63 288522750,,,,,"Fri Aug 4, 2023 7:22PM","{'lat': 14.531314, 'lng': 121.021326}",121.021326,14.531314
19,St. Andrew the Apostle Parish,"#62 Constellation cor. N. Garcia Sts., Makati City, Metro Manila",288977743,,Wed and Fri: 12NN-1PM and 5:30-6:30PM,,,"Sun Mar 26, 2023 9:03PM","{'lat': 14.5658953, 'lng': 121.0232838}",121.0232838,14.5658953
20,St. John Bosco Parish,"A. Arnaiz Ave. ( Pasay Rd. ) cor. Amorsolo St., Makati City, Metro Manila",894-5932 to 34,,Available at the Adoration Chapel during the Masses,,,"Sun Dec 17, 2023 7:55AM","{'lat': 14.551081, 'lng': 121.011208}",121.011208,14.551081
21,St. John Mary Vianney Parish,"Narra St. , Brgy. Cembo, Makati City, Metro Manila",288815078,,,,,"Mon Jun 5, 2023 9:25PM","{'lat': 14.5629377, 'lng': 121.0517217}",121.0517217,14.5629377
22,St. John of the Cross Parish,"Catholic Rectory, 9 Hasmin St . PEMBO, Makati City, Metro Manila",728-7316,,,,Youth Mass: Every 4th Sunday of the Month at 6 PM.,"Mon May 9, 2016 10:04PM","{'lat': 14.572631, 'lng': 121.0357821}",121.0357821,14.572631
23,St. John Paul II Chapel,"Circuit Lane, Makati City, Metro Manila",None,,,,,"Mon Nov 20, 2023 4:28PM","{'lat': 14.5753021, 'lng': 121.0196578}",121.0196578,14.5753021
24,St. Joseph the Worker Parish,"4927 Enrique St. , Palanan, Makati City, Metro Manila",288316089,,30 minutes before every mass or by appointment,,,"Tue Jun 13, 2023 9:01AM","{'lat': 14.5617594, 'lng': 121.0032355}",121.0032355,14.5617594
25,Sta. Teresita Parish,"A. Mabini St., West Rembo, Makati City, Metro Manila",288815241,,,,,"Mon Jun 5, 2023 9:16PM","{'lat': 14.5592198, 'lng': 121.0626459}",121.0626459,14.5592198
26,Sto. Niño De Paz Chapel (Greenbelt Chapel),"Greenbelt Park, Ayala Center, Makati City, Metro Manila",287298173,,Mon to Sat: 8AM -  6PM,,,"Mon Dec 11, 2023 7:19PM","{'lat': 14.5527276, 'lng': 121.0222429}",121.0222429,14.5527276
27,Sts. Peter and Paul Parish,"5539 D. M. Rivera St. , Poblacion, Makati City, Metro Manila",288993285,,,,,"Mon Jun 5, 2023 8:45PM","{'lat': 14.5658842, 'lng': 121.0313917}",121.0313917,14.5658842
0,Exaltation of the Holy Cross Parish,"31 A Gervacio St.,Hulong Duhat, Malabon City, Metro Manila",(8) 352 0182,,,,,"Sun Mar 12, 2023 7:36PM","{'lat': 14.6785947, 'lng': 120.9403274}",120.9403274,14.6785947
1,Holy Trinity Quasi-Parish,"138 Sanchez Street, Tinajeros, Malabon City, Metro Manila",287136728,,,,,"Sun Mar 12, 2023 10:27PM","{'lat': 14.6699791, 'lng': 120.9696055}",120.9696055,14.6699791
2,Immaculate Conception Parish,"272 Gen. Luna St., Concepcion, Malabon City, Metro Manila",(02) 8281-5001,Rev. Fr. Joey C. Enriquez,by appointment,,,"Sun Jan 8, 2023 7:14PM","{'lat': 14.6686681, 'lng': 120.9473301}",120.9473301,14.6686681
3,Immaculate Heart of Mary Parish,"M.H, Del Pilar St., Maysilo, Malabon City, Metro Manila",(02) 277 2548,,,,,"Sun Mar 12, 2023 7:42PM","{'lat': 14.679974, 'lng': 120.9612156}",120.9612156,14.679974
4,Sacred Heart of Jesus Parish,"M.H. Del Pilar Cor. Pureza St., Tugatog, Malabon City, Metro Manila",282883777,,,,,"Sun Mar 12, 2023 9:57PM","{'lat': 14.661651, 'lng': 120.9698205}",120.9698205,14.661651
5,San Antonio de Padua Parish,"Sanciangco St., Tonsuya, Malabon City, Metro Manila",8355-5427,,,,,"Sun Mar 12, 2023 9:28PM","{'lat': 14.6647727, 'lng': 120.957302}",120.957302,14.6647727
6,San Bartolome,"Rizal Avenue, Malabon City, Metro Manila",8281-1266  /  8283-3512,Rev. Fr. Elpidio A. Erlano Jr.,,,,"Sun Mar 12, 2023 9:32PM","{'lat': 14.6143876, 'lng': 120.9826056}",120.9826056,14.6143876
7,St. Clare of Assisi Parish,"Block 50 Lot 2 P2 E3 Maya-maya Corner Alupihang-dagat Barangay Longos, Malabon City, Metro Manila",,,,,,"Sun Mar 12, 2023 10:12PM","{'lat': 14.6507995, 'lng': 120.9617979}",120.9617979,14.6507995
8,Sto Rosario Parish,"Don Basilio Bautista Blvd.,Dampalit, Malabon City, Metro Manila",638-2821416,,,,annointing of the sick: by schedule:,"Sun May 1, 2022 4:55PM","{'lat': 14.6844872, 'lng': 120.94284}",120.94284,14.6844872
9,Sts. Peter and John Parish,"36 Orange Road,Potrero, Malabon City, Metro Manila",283619924,,,,,"Sun Mar 12, 2023 9:41PM","{'lat': 14.6700546, 'lng': 120.9833349}",120.9833349,14.6700546
0,Archdiocesan Shrine of the Divine Mercy,"Maysilo Circle, Boni Ave, Mandaluyong City, Metro Manila",531-4598,"Msgr. Alberto G. Salonga, Jr. (Rector)","Sunday: 6 AM - 12:30 PM, 3 PM - 6 PM",,,"Thu Aug 25, 2016 9:11PM","{'lat': 14.5767525, 'lng': 121.0347989}",121.0347989,14.5767525
1,Chapel of the Eucharistic Lord,"5th Floor, SM Megamall , Mandaluyong City, Metro Manila",(02) 8638-8801,"Rev. Msgr. Noly A. Que, LRMS","Wed, Fri and Sat: 3:00pm-5:00pm",,,"Mon Dec 11, 2023 7:11PM","{'lat': 14.5859462, 'lng': 121.0565345}",121.0565345,14.5859462
2,Our Lady of Fatima Parish,"Mariveles Street., Highway Hills, Mandaluyong City, Metro Manila",532-8400,,,,,"Wed Mar 17, 2010 10:43AM","{'lat': 14.5814993, 'lng': 121.0502427}",121.0502427,14.5814993
3,Parish of Our Lady of the Abandoned,"Coronado St., Hulo, Mandaluyong City, Metro Manila",532-7756,"Rev. Fr. Eladio Oliver, MSP",,,,"Thu Oct 31, 2013 11:37AM","{'lat': 14.5704548, 'lng': 121.031169}",121.031169,14.5704548
4,Sacred Heart of Jesus Parish,"Welfareville Compound, Mandaluyong City, Metro Manila",531-8539,Rev. Fr. Wilmer Rosario,,,,"Wed Mar 17, 2010 10:43AM","{'lat': 14.5855301, 'lng': 121.0378102}",121.0378102,14.5855301
5,San Felipe Neri Parish,"Boni Avenue, Mandaluyong City, Metro Manila",531-2931,,,,Simbang Gabi: December 15-23 7:30PM and 9:00PM,"Sun Dec 12, 2021 9:06AM","{'lat': 14.5764033, 'lng': 121.0385516}",121.0385516,14.5764033
6,San Roque Parish,"San Roque St., Barangka, Mandaluyong City, Metro Manila",531-0009,,,,,"Wed Dec 2, 2015 12:47AM","{'lat': 14.5902325, 'lng': 121.023412}",121.023412,14.5902325
7,Santuario De San Jose ( St. Joseph the Patriarch),"Buffalo cor. Duke Sts. , East Greenhills, Mandaluyong City, Metro Manila",287252044,,Before every mass; by request,,Here is the office hours schedule,"Tue Jan 24, 2023 9:16PM","{'lat': 14.6023732, 'lng': 121.0464101}",121.0464101,14.6023732
8,St. Dominic Savio Parish,"49 Pag-asa St., Mandaluyong City, Metro Manila",531-7776,,,,,"Wed Mar 17, 2010 10:43AM","{'lat': 14.5905504, 'lng': 121.0275523}",121.0275523,14.5905504
9,St. Francis of Assisi Parish,"Saint Francis Street corner Shaw Boulevard, Mandaluyong City, Metro Manila",(02) 863 1635,,,,,"Fri Dec 15, 2023 10:39PM","{'lat': 14.5790314, 'lng': 121.0562407}",121.0562407,14.5790314
0,Archdiocesan Shrine of Our Lady of Fatima,"North Road, Basak, Mandaue City, Cebu",346-7542,,,,,"Mon Feb 8, 2021 8:24AM","{'lat': 10.3583408, 'lng': 123.9499219}",123.9499219,10.3583408
1,Catholic Church of Christ of the Agony (Gethsemane Parish),"Casuntingan, Mandaue City, Cebu",346-9560,,Every after Mass,,,"Sat Aug 6, 2022 5:16PM","{'lat': 10.3450396, 'lng': 123.9317932}",123.9317932,10.3450396
2,Christ the King Parish,"Alang-alang, Mandaue City, Cebu",(032) 261 4392,,Every first Friday after 6PM Mass,,,"Tue Nov 22, 2022 11:09AM","{'lat': 10.335817, 'lng': 123.9485215}",123.9485215,10.335817
3,Holy Family Parish,"Maguikay, Mandaue City, Cebu",420-5299,,,,,"Fri Apr 28, 2023 10:32PM","{'lat': 10.3416337, 'lng': 123.9401578}",123.9401578,10.3416337
4,National Shrine of St. Joseph,"S.B. Cabahug St. Centro, Mandaue City, Cebu",344-3354,,,,,"Fri Apr 28, 2023 10:35PM","{'lat': 10.3268958, 'lng': 123.9424019}",123.9424019,10.3268958
5,Nativity Of Mary Parish,"Canduman, Mandaue City, Cebu",0922-729-6058,,MWF at 5PM,,,"Tue Nov 22, 2022 10:57AM","{'lat': 10.3677899, 'lng': 123.9331874}",123.9331874,10.3677899
6,San Roque Parish,"Subangdaku, Mandaue City, Cebu",(032) 520-3324,,Thur at 8PM - Holy Hour with Confession,,,"Sat Dec 16, 2023 10:02AM","{'lat': 10.3256989, 'lng': 123.9220336}",123.9220336,10.3256989
7,Sto. Niño Parish,"Paknaan, Mandaue City, Cebu",(032) 326 7123,,,,,"Fri Apr 28, 2023 10:43PM","{'lat': 10.3451759, 'lng': 123.9610657}",123.9610657,10.3451759
0,Archdiocesan Shrine of Santo Niño (Tondo Church),"600 Lorenzo Chacon St. Tondo, Manila City, Metro Manila",Smart/Viber: 0969-5655166 Globe: 0945-6694445 Land,Rev. Msgr. Geronimo Reyes,Tuesday to Friday 7:00am,,,"Fri Jan 27, 2023 10:41PM","{'lat': 14.6082591, 'lng': 120.9682221}",120.9682221,14.6082591
1,Abbey Church of Our Lady of Montserrat (San Beda College),"Mendiola, San Miguel, Manila City, Metro Manila",(02) 735-5992,,,,,"Sun Nov 13, 2022 11:56AM","{'lat': 14.5985559, 'lng': 120.9928299}",120.9928299,14.5985559
2,Archdiocesan Shrine of Nuestra Señora de Guia Parish ( Ermita Church),"M. H. del Pilar St. cor. A. Flores St .,  Ermita, Manila City, Metro Manila",523-2754,,"A priest is available to hear Confessions at 5:30 pm, Monday-Saturday. Otherwise, you may approach him after he celebrates Holy Mass.",,,"Fri Dec 15, 2023 11:33PM","{'lat': 14.578903, 'lng': 120.9795455}",120.9795455,14.578903
3,Archdiocesan Shrine of Our Lady of Loreto Parish,"Jose Figueras ( Bustillos) St.,  Sampaloc, Manila City, Metro Manila",736-0529,,,,,"Sun Nov 13, 2022 2:17PM","{'lat': 14.6020239, 'lng': 120.9929105}",120.9929105,14.6020239
4,Archdiocesan Shrine of Our Lady of Peñafrancia Parish,"1343 Gomez St., Paco, Manila City, Metro Manila",285640638,,,,,"Thu Nov 24, 2022 9:23PM","{'lat': 14.5848671, 'lng': 120.9979995}",120.9979995,14.5848671
5,Holy Family Parish,"1746 Estrada cor. Chromium St . San Andres Bukid, Manila City, Metro Manila",563-1555,Msgr. Roberto A. Espenilla,,,,"Thu Sep 5, 2013 1:17PM","{'lat': 14.5739615, 'lng': 121.0054585}",121.0054585,14.5739615
6,Immaculate Conception Chapel,"Philippine General Hospital, Pedro Gil, Manila City, Metro Manila",,,15 minutes before daily mass,,,"Sat May 25, 2013 5:18PM","{'lat': 14.5777811, 'lng': 120.9856047}",120.9856047,14.5777811
7,Immaculate Conception Parish,"287 Tayuman St., Tondo, Manila City, Metro Manila",8-253-7888,Msgr. Claro Matt M. Garcia,,,,"Sat Nov 19, 2022 11:27PM","{'lat': 14.6171921, 'lng': 120.9749455}",120.9749455,14.6171921
8,Minor Basilica of San Lorenzo Ruiz (Binondo Church),"Plaza Lorenzo Ruiz, Binondo, Manila City, Metro Manila",(02)8242-4850,,MWF: 11AM-12NN / TThS: 3PM-4:30PM,,OFFICE HOURS:,"Fri Dec 15, 2023 11:26PM","{'lat': 14.5996804, 'lng': 120.9740957}",120.9740957,14.5996804
9,Minor Basilica of San Sebastian ( Our Lady of Mount Carmel Shrine),"Plaza del Carmen, Quiapo, Manila City, Metro Manila","02) 734 8908, 0998 951 6484",,"Wed, Fri and Sun: 4:30PM - 5:45PM",,,"Sat Dec 16, 2023 10:09AM","{'lat': 14.5991893, 'lng': 120.9890213}",120.9890213,14.5991893
10,Minor Basilica of the Black Nazarene - St. John the Baptist Parish (Quiapo Church),"Plaza Miranda, Quiapo, Manila City, Metro Manila",287334945,,Monday to Saturday 5:00 a.m. to 9:00 p.m,,HEALING MASS:,"Sun Apr 21, 2024 2:22PM","{'lat': 14.5982513, 'lng': 120.9835739}",120.9835739,14.5982513
11,Minor Basilica of the Immaculate Conception (Manila Cathedral),"Cabildo corner Beaterio Sts., Intramuros, Manila City, Metro Manila","0917 541 2103, (02) 8 527-1796",Rev. Fr. Reginald Malicdem,,,All Masses are livestreamed online through our Facebook Page and Youtube  Channel.,"Tue Nov 22, 2022 8:57PM","{'lat': 14.5915256, 'lng': 120.9741641}",120.9741641,14.5915256
12,Most Blessed Sacrament Chapel,"2nd Floor, La Salle Hall, De La Salle University, 2401 Taft Ave., Manila City, Metro Manila",n/a,Fr. Dante Funelas (Chaplain),,,Open to the public for Sunday mass,"Tue Nov 8, 2016 3:06PM","{'lat': 14.5640047, 'lng': 120.9941952}",120.9941952,14.5640047
13,Most Holy Trinity Parish,"Calabash Rd., Balic-Balic, Sampaloc, Manila City, Metro Manila",781-6076,Fr. Erik Adoviso,,,,"Wed Nov 23, 2022 10:42AM","{'lat': 14.6119748, 'lng': 121.0031966}",121.0031966,14.6119748
14,National Shrine of Our Lady of the Abandoned,"New Panaderos Street, Sta. Ana, Manila City, Metro Manila",285644203,"Fr Vonci Del Mundo, OFM",,,,"Thu Nov 24, 2022 10:01PM","{'lat': 14.5858715, 'lng': 121.0190301}",121.0190301,14.5858715
15,National Shrine of Saint Jude Thaddeus,"J. P. Laurel Sr. cor. Ycaza Sts., San Miguel, Manila City, Metro Manila",287356408,,,,,"Thu Dec 14, 2023 5:45PM","{'lat': 14.5980406, 'lng': 120.9946143}",120.9946143,14.5980406
16,National Shrine of Saint Michael and the Archangels,"1000 J. P. Laurel St. cor. Gen Solano St., San Miguel, Manila City, Metro Manila",0977 240 9731,Msgr. Mario Enriquez,Call the Parish for an appointment,,,"Wed Nov 23, 2022 10:55AM","{'lat': 14.5924565, 'lng': 120.9914711}",120.9914711,14.5924565
17,Nuestra Señora De Salvacion Parish,"Anonas St. , NDC Compound, Santa Mesa, Manila City, Metro Manila",279543215,,,,Monday-Friday at 6:00 PM,"Thu Nov 24, 2022 8:29PM","{'lat': 14.599272, 'lng': 121.004877}",121.004877,14.599272
18,Nuestra Señora Del Perpetuo Socorro Parish,"2042 Calamba cor. Instruccion St .
Sampaloc, Manila City, Metro Manila",287418010,Fr. Jerome R. Secillano,,,,"Thu Nov 24, 2022 8:40PM","{'lat': 14.6225503, 'lng': 120.9915406}",120.9915406,14.6225503
19,Our Lady of Fatima Parish,"Lubiran St. cor. Mag. Jose Abad Santos St. Bacood, Manila City, Metro Manila",287135776,"Rev Fr. Manuel ""Jun"" S. Abogado III",Mon- Sat 5:00pm-6:00pm,,,"Thu Nov 24, 2022 8:53PM","{'lat': 14.5895821, 'lng': 121.0190931}",121.0190931,14.5895821
20,Our Lady of Peace and Good Voyage of Tondo - Recoletos,"Tahimik Street, Tondo, Manila City, Metro Manila",273690902,,,,,"Thu Nov 24, 2022 9:05PM","{'lat': 14.6014011, 'lng': 120.9644707}",120.9644707,14.6014011
21,Our Lady of Perpetual Help Parish,"Punta, Santa Ana, Manila City, Metro Manila",02 8532 1770,Rev. Fr. Jeremiah Adviento,,,,"Thu Nov 24, 2022 9:35PM","{'lat': 14.5828142, 'lng': 121.0117008}",121.0117008,14.5828142
22,Our Lady of Remedies Parish ( Malate Catholic Church),"2000 M.H. Del Pilar St., Malate, Manila City, Metro Manila",285232593,"Rev. Fr. Leo Distor, S.S.C.",,,,"Thu Nov 24, 2022 9:45PM","{'lat': 14.5693258, 'lng': 120.9846521}",120.9846521,14.5693258
23,Our Lady of the Assumption Parish,"Asuncion St., Malate, Manila City, Metro Manila",0917-136-5703,Fr. Benjie Ledesma,,,,"Fri Nov 25, 2022 10:51AM","{'lat': 14.5662055, 'lng': 120.9896748}",120.9896748,14.5662055
24,Our Lady of the Most Holy Rosary - Binondo Chinese Parish,"649 Ongpin St., Binondo, Manila City, Metro Manila","8242-5538, 0917-1137119",,,,Daily Rosary Prayer at 9PM (FB Live),"Sat Dec 10, 2022 11:02AM","{'lat': 14.6005088, 'lng': 120.9752418}",120.9752418,14.6005088
25,Our Lady of the Pillar Parish (Sta. Cruz Church),"Santa Cruz, Manila City, Metro Manila",(02) 733 0245,,"Tue-Fri: 7-8AM, 10:30-11:45AM, 3:30PM-4:45PM and Sat: 10:30-11:30AM, 3:30-4:45PM",,Also designated as the Archdiocesan Shrine of the Blessed Sacrament,"Mon Nov 28, 2022 11:42AM","{'lat': 14.6178881, 'lng': 120.9847642}",120.9847642,14.6178881
26,Parish and Archdiocesan Shrine of Espiritu Santo,"Rizal Ave. cor. Tayuman St., Santa Cruz, Manila City, Metro Manila",711-1332,"Msgr. Alberto G. Salonga, Jr.",,,,"Tue Nov 22, 2022 8:38PM","{'lat': 14.6168359, 'lng': 120.9826878}",120.9826878,14.6168359
27,Risen Christ Parish,"Smokey Mountain Temporary Housing
Bldg. 27, R-10 Balut, Tondo, Manila City, Metro Manila",255-4181,"Rev. Fr. Jhonatan Letada, SVD",Anytime (if priest is available),,First Friday Devotion 3:00 pm- 1st Friday of the month,"Wed Jul 27, 2016 8:43PM","{'lat': 14.6325696, 'lng': 120.9596667}",120.9596667,14.6325696
28,Sacred Heart of Jesus Parish,"4324 Old Santa Mesa, Manila City, Metro Manila",713-2895,,by schedule,,,"Fri Nov 25, 2022 11:46AM","{'lat': 14.6015702, 'lng': 121.011965}",121.011965,14.6015702
29,San Fernando De Dilao Parish (Paco Church),"1521 Paz St. , Paco, Manila City, Metro Manila",85625071,Rev. Fr. Sanny De Claro,,,,"Fri Nov 25, 2022 1:21PM","{'lat': 14.5794554, 'lng': 120.9945776}",120.9945776,14.5794554
30,San Jose de Trozo Parish,"1340 Masangkay St. , Santa Cruz, Manila City, Metro Manila",8256-3435,,Wed and First Friday: 5-6PM,,,"Fri Nov 25, 2022 1:25PM","{'lat': 14.60907, 'lng': 120.9793079}",120.9793079,14.60907
31,San Jose Manggagawa Parish,"3025 Molave St., Manuguit Subd., Tondo, Manila City, Metro Manila",275016747,,,,,"Fri Nov 25, 2022 1:57PM","{'lat': 14.6318894, 'lng': 120.9785689}",120.9785689,14.6318894
32,San Pablo Apostol Parish,"2237 Velasquez St., Tondo, Manila City, Metro Manila",(02) 835 06288,,,,,"Fri Nov 25, 2022 9:40PM","{'lat': 14.6240585, 'lng': 120.9643894}",120.9643894,14.6240585
33,San Rafael Parish,"177 Taliba St. , San Rafael Subd.
Balut, Tondo, Manila City, Metro Manila",251-5333,,,,,"Thu May 6, 2021 10:59AM","{'lat': 14.6352179, 'lng': 120.9653576}",120.9653576,14.6352179
34,San Roque De Manila Parish,"Rizal Ave., Santa Cruz, Manila City, Metro Manila",(02) 87328397,,,,,"Wed Mar 29, 2023 9:41PM","{'lat': 14.6143876, 'lng': 120.9826056}",120.9826056,14.6143876
35,San Roque de Sampaloc Parish,"542 M. dela Fuente St. ,Sampaloc, Manila City, Metro Manila",287497039,,,,,"Sat Nov 26, 2022 5:56PM","{'lat': 14.607455, 'lng': 120.998279}",120.998279,14.607455
36,San Vicente De Paul Parish,"959 San Marcelino St., Ermita, Manila City, Metro Manila",,,,,sanvicentedepaulparish@gmail.com,"Sat Nov 26, 2022 10:02PM","{'lat': 14.5853332, 'lng': 120.985699}",120.985699,14.5853332
37,Santisima Trinidad Parish,"1127 Estrada Cor. Dian Sts. Malate, Manila City, Metro Manila","85223018, +639955797206","Rev. Fr. Carmelo P. Arada, Jr.",,,,"Sat Nov 26, 2022 11:01PM","{'lat': 14.5667385, 'lng': 120.9993049}",120.9993049,14.5667385
38,Santisimo Rosario Parish,"UST, España Blvd., Sampaloc, Manila City, Metro Manila",731-3062,,by appointment,,parish.sec@ust.edu.ph,"Sat Nov 26, 2022 11:26PM","{'lat': 14.6098055, 'lng': 120.9895794}",120.9895794,14.6098055
39,Shrine of Our Lady of Correa / Immaculate Conception Parish ( San Agustin Church),"General Luna Street, Intramuros, Manila City, Metro Manila",+6385272746,,,,,"Sat Nov 26, 2022 11:43PM","{'lat': 14.5896157, 'lng': 120.9749453}",120.9749453,14.5896157
40,Shrine of St. Lazarus,"A. Villarama Ave., San Lazaro Compound, Sta. Cruz, Manila City, Metro Manila",309-9609,,"Daily: 30 mins. before Mass, 1st Thur: 5PM",,,"Wed Mar 17, 2010 10:43AM","{'lat': 14.6155334, 'lng': 120.9813863}",120.9813863,14.6155334
41,St. Anthony of Padua Parish,"2126 Singalong cor San Andres Sts. Malate, Manila City, Metro Manila",(02) 8523-5084,,,,,"Sat Nov 26, 2022 11:57PM","{'lat': 14.5709487, 'lng': 120.9952261}",120.9952261,14.5709487
42,St. Anthony of Padua Shrine,"254 Manrique St., Sampaloc, Manila City, Metro Manila",287346526,,,,,"Mon Nov 28, 2022 8:42AM","{'lat': 14.602837, 'lng': 120.993302}",120.993302,14.602837
43,St. John Bosco Parish,"Carlos P. Garcia St. , Bo. Magsaysay, Tondo, Manila City, Metro Manila",0932 531 3559,,,,,"Mon Nov 28, 2022 9:08AM","{'lat': 14.5948772, 'lng': 121.0029162}",121.0029162,14.5948772
44,St. Joseph Parish,"2671 J. Luna St. , Gagalangin, Tondo, Manila City, Metro Manila",282538283,Rev. Fr. Joseino B. Tuazon,,,,"Wed Apr 5, 2023 10:45AM","{'lat': 14.6292346, 'lng': 120.9736882}",120.9736882,14.6292346
45,St. Martha Chapel (Harrison Plaza),"2nd Floor, Harrison Plaza (Adriatico side), M. Adriatico St., Malate, Manila City, Metro Manila",536-0896,,Tuesday 6:00 PM,,,"Fri Dec 4, 2015 1:22PM","{'lat': 14.5606476, 'lng': 120.9902508}",120.9902508,14.5606476
46,St. Mary Goretti Parish,"Pope Pius XII Catholic Center, 1175 United Nations Ave., Paco, Manila City, Metro Manila",8536-1820,,,,All Masses are streamed live except Saturday 5PM and Sunday 12:15PM,"Mon Nov 28, 2022 9:38AM","{'lat': 14.585077, 'lng': 120.9901415}",120.9901415,14.585077
47,St. Peter the Apostle Parish,"1260 President Quirino Ave., Ext., Paco, Manila City, Metro Manila",8564-6470,,,,,"Mon Nov 28, 2022 10:29AM","{'lat': 14.5759082, 'lng': 120.9960683}",120.9960683,14.5759082
48,St. Pius X Parish,"Neptuno cor. 7th St. , Onyx Ave. , Paco, Manila City, Metro Manila",8353-55-19,"Rev. Fr. Neofil ""Bong"" Aguillon",,,sanpiodecimo50@gmail.com,"Mon Nov 28, 2022 10:41AM","{'lat': 14.5768841, 'lng': 121.0011943}",121.0011943,14.5768841
49,Sta. Monica Parish,"Basa cor. Dagupan Sts., Tondo, Manila City, Metro Manila",0951 296 3444,,,,,"Mon Nov 28, 2022 11:54AM","{'lat': 14.6178438, 'lng': 120.9739946}",120.9739946,14.6178438
50,Sto. Niño Parish,"Jesus St., Pandacan, Manila City, Metro Manila",285633211,Rev. Fr. Andy Ortega Lim,,,,"Mon Nov 28, 2022 1:36PM","{'lat': 14.5922588, 'lng': 121.0056992}",121.0056992,14.5922588
51,UST Hospital Chapels,"UST, Espana, Manila City, Metro Manila",,,,,,"Sat Nov 19, 2011 4:37AM","{'lat': 14.6098055, 'lng': 120.9895794}",120.9895794,14.6098055
0,Chapel of Risen Christ (also known as Twinville Chapel),"Camia Street, Twinville Subd, Concepcion Uno, Marikina City, Metro Manila",not specified,,,,,"Thu Jun 19, 2014 3:42AM","{'lat': 14.663686, 'lng': 121.1029167}",121.1029167,14.663686
1,Diocesan Shrine and Parish of Our Lady of the Abandoned,"J. P. Rizal St., Barangay Sta. Elena, Marikina City, Metro Manila",646-1781,"Most Rev. Francisco M. de Leon, D.D.",Monday-Saturday: 7:00 am and 5:00 pm,,,"Wed Sep 4, 2013 10:59PM","{'lat': 14.6324947, 'lng': 121.0951925}",121.0951925,14.6324947
2,Holy Family Parish,"233  C.M. Recto St. Parang, Marikina City, Metro Manila",941-7531,,,,Additional Mass:,"Sun Dec 3, 2023 10:48AM","{'lat': 14.661831, 'lng': 121.1136353}",121.1136353,14.661831
3,Immaculate Conception Parish,"Bayan-Bayanan Ave., Concepcion Uno, Marikina City, Metro Manila",289414870,,,,,"Fri Dec 15, 2023 10:46PM","{'lat': 14.6509071, 'lng': 121.1082877}",121.1082877,14.6509071
4,Immaculate Conception Parish Church,"Mary Mount Street cor. St. Mary Ave., Provident Villages, Jesus dela Peña, Marikina City, Metro Manila",,Rev. Fr. Michael A. Pacag,Wednesday and Friday: 5:00 pm,,"Common Baptism: 11:30 am;
Wedding, Confirmation, Sick Call: By Appointment;
First Friday Adoration: 5:30 pm","Sun Nov 10, 2013 4:25PM","{'lat': 14.633551, 'lng': 121.0889763}",121.0889763,14.633551
5,Nativity of Our Lady Parish,"Major Dizon St., Industrial Valley Complex, Marikina City, Metro Manila",681-5950,Fr. Joselito Rocero,,,,"Wed Mar 17, 2010 10:43AM","{'lat': 14.6225493, 'lng': 121.0791351}",121.0791351,14.6225493
6,Our Lady of Guadalupe Parish,"Bulelak Street, Barangay Malanday, Marikina City, Metro Manila",948-2264,"Fr. Emanuele Borelli, SX",,,"Baptisms - 11:00 am Every Sunday or by appointment

Holy Hour of Adoration to the Blessed Sacrament
5:30 pm Every Thursday at Bulelak Chapel 
5:00 pm Every Friday at Tumana Chapel

Office Hours (Parish Office is at Bulelak)
8:00am - 12:00 & 2:00pm - 6:00pm Tuesday to Sunday","Mon Dec 7, 2015 9:24PM","{'lat': 14.6499788, 'lng': 121.0977925}",121.0977925,14.6499788
7,Saint Paul of the Cross Parish,"SSS Village, Concepcion Dos, Marikina City, Metro Manila",490-4973/941-7617,Fr. Peter Julian Eymard C. Balatbat,"Every Wednesday & Friday, 5:00 pm - 6:00 pm",,,"Wed Mar 17, 2010 10:43AM","{'lat': 14.637574, 'lng': 121.1177384}",121.1177384,14.637574
8,San Antonio de Padua,"J.P. Rizal St., Barangay Kalumpang, Marikina City, Metro Manila",682-1816,Fr. Alfredo Ganzon,,,,"Wed Mar 17, 2010 10:43AM","{'lat': 14.6248625, 'lng': 121.0957403}",121.0957403,14.6248625
9,San Isidro Labrador Parish,"Greenland Village Phase I, Nangka, Marikina City, Metro Manila",948-2829,Fr. Jeffrey B. Quintela,,,,"Sat Sep 21, 2013 11:55AM","{'lat': 14.5455584, 'lng': 121.0234189}",121.0234189,14.5455584
10,San Jose Manggagawa Parish,"Chorillo St., Barangka, Marikina City, Metro Manila",948-1073,Fr. Roland M. Alcones,,,,"Mon May 11, 2015 10:54AM","{'lat': 14.6376251, 'lng': 121.083654}",121.083654,14.6376251
11,St. Gabriel of Our Lady of Sorrows Parish,"143 Narra street corner East Drive, Marikina Heights, Marikina City, Metro Manila",997-4507,Fr. Rene Ventajar CP,,,,"Wed Nov 25, 2015 9:35PM","{'lat': 14.6548426, 'lng': 121.1207507}",121.1207507,14.6548426
0,Asian Hospital Chapel,"2205 Civic Dr, Filinvest City, Alabang, Muntinlupa City, Metro Manila",771-9000,,,,,"Fri Dec 4, 2015 1:07PM","{'lat': 14.4143437, 'lng': 121.040687}",121.040687,14.4143437
1,Chapel of the Forgiving Lord,"Tuloy sa Don Bosco Street Children Village, Alabang-Zapote Road corner San Jose St., Muntinlupa City, Metro Manila",-,,,,,"Tue Nov 25, 2014 11:30AM","{'lat': 37.33874, 'lng': -121.8852525}",-121.8852525,37.33874
2,Diocesan Shrine of Our Lady of the Abandoned Parish,"National Rd., Poblacion, Muntinlupa City, Metro Manila",288610519,,Wed and Sat: 5:00pm to 6:00pm,,,"Sat Mar 11, 2023 9:21PM","{'lat': 14.3910163, 'lng': 121.0475663}",121.0475663,14.3910163
3,Festival Mall Alabang,"3rd Floor, Expo Trade Hall, Festival Mall, Filinvest, Alabang, Muntinlupa City, Metro Manila",-,,,,,"Sat Mar 11, 2023 10:19PM","{'lat': 14.4170555, 'lng': 121.0401601}",121.0401601,14.4170555
4,Hearts of Jesus and Mary,"Asian Hospital and Medical Center, Alabang, Muntinlupa City, Metro Manila",771-9000,,30 minutes before regular Mass,,3rd Tuesday of the month at 12:30PM - St. Peregrine Healing Mass,"Fri Dec 13, 2019 12:13PM","{'lat': 14.4134655, 'lng': 121.0435335}",121.0435335,14.4134655
5,Ina ng Awa Parish,"NBP Reservation, Muntinlupa City, Metro Manila",0288468685,,,,,"Sun Apr 2, 2023 12:46AM","{'lat': 14.3832664, 'lng': 121.0305868}",121.0305868,14.3832664
6,L'Annunziata Parish,"Don Pedro Reyes Ave., Victoria Homes Subd., Tunasan, Muntinlupa City, Metro Manila",0917 701 5972,,by request,,,"Sat Mar 11, 2023 9:04PM","{'lat': 14.3663925, 'lng': 121.0142057}",121.0142057,14.3663925
7,"Mary, Cause of Our Joy Parish","Soldier's Hills Village, Muntinlupa City, Metro Manila",273400900,,,,,"Sat Mar 11, 2023 9:11PM","{'lat': 14.3991548, 'lng': 121.0427383}",121.0427383,14.3991548
8,"Mary, Mother of God Parish Archdiocesan Shrine","National Rd., Bayanan, Muntinlupa City, Metro Manila",,,Mon-Fri: 6PM,,The Parish office is open from Tuesday to Sunday,"Sat Mar 11, 2023 9:12PM","{'lat': 14.4090403, 'lng': 121.0462782}",121.0462782,14.4090403
9,Our Lady of Lourdes Chapel,"Civic Drive, Filinvest City, Alabang, Muntinlupa City, Metro Manila",,,,,,"Sat Apr 8, 2023 1:53PM","{'lat': 14.4143437, 'lng': 121.040687}",121.040687,14.4143437
10,Our Lady of the Holy Rosary Chapel,"Muntinlupa City, Metro Manila",,Fr. Jewel Palmani,,,,"Sat Nov 19, 2011 4:24AM","{'lat': 14.4125897, 'lng': 121.0343247}",121.0343247,14.4125897
11,Our Lady of the Miraculous Medal National Shrine,"Posadas Avenue, Sucat, Muntinlupa City, Metro Manila",288371004,,Thur before First Friday: 6-7PM and Saturdays: 8-9AM,,,"Sat Mar 11, 2023 9:29PM","{'lat': 14.4606085, 'lng': 121.0507764}",121.0507764,14.4606085
12,Sacred Heart of Jesus Parish,"Don Jesus Boulevard, Alabang Hills, Muntinlupa City, Metro Manila",287773443,Rev. Msgr. Allen Aganon,Wed and Thur: 5:00PM -  5:45PM,,Adoration Chapel: 5:00 AM - 8:00 PM,"Sat Feb 17, 2024 10:24PM","{'lat': 14.4348151, 'lng': 121.03244}",121.03244,14.4348151
13,Saint James the Great Parish,"Cuenca corner Ibaan Streets, Ayala Alabang Village, Muntinlupa City, Metro Manila",(08842) 5140,,Mon to Fri -- 4:00pm - 5:00pm and Sat -- 3:00 to 5:00 PM,,,"Sat Mar 11, 2023 9:38PM","{'lat': 14.3913068, 'lng': 121.0137479}",121.0137479,14.3913068
14,Saint Jerome Emiliani and Sta. Susana Parish,"Commerce Ave., Ayala Alabang, Muntinlupa City, Metro Manila","8842-4947, 0977 234 4530",,Monday-Friday 4:30PM to 5:30PM,,,"Wed Mar 20, 2024 11:21PM","{'lat': 14.4220001, 'lng': 121.0291428}",121.0291428,14.4220001
15,Saint Peregrine Laziosi Parish,"National Rd., Tunasan, Muntinlupa City, Metro Manila","02-8842-2424, 09178946562 or 09434114266",,,,,"Sun Mar 26, 2023 9:01PM","{'lat': 14.3885751, 'lng': 121.0475806}",121.0475806,14.3885751
16,San Nicolas de Tolentino Parish,"M.L. Quezon St., Cupang, Muntinlupa City, Metro Manila",283726542,,,,,"Sat Mar 11, 2023 9:55PM","{'lat': 14.4594461, 'lng': 121.053871}",121.053871,14.4594461
17,San Roque Parish,"Corners Mendiola and Molina Streets, Alabang, Muntinlupa City, Metro Manila",0917 564 6774,,,,,"Sat Mar 11, 2023 10:08PM","{'lat': 14.4181469, 'lng': 121.0487033}",121.0487033,14.4181469
18,St. Benedict Chapel,"San Beda Alabang, Alabang Hills, Cupang, Muntinlupa City, Metro Manila",,,Just approach the priest before and after the Holy Mass,,,"Wed May 13, 2015 1:59PM","{'lat': 14.4330885, 'lng': 121.0255363}",121.0255363,14.4330885
0,San Ildefonso Parish,"Estrella St., Navotas East, Navotas City, Metro Manila",,Rev.Fr. Jerome Cruz,,,,"Wed Mar 17, 2010 10:43AM","{'lat': 14.65532, 'lng': 120.9497634}",120.9497634,14.65532
1,San Jose de Navotas Parish,"M. Naval Street, Navotas City, Metro Manila",(02) 282-9126,Rev. Fr. Rufino P. Yabut,before every Mass,,,"Thu Aug 31, 2017 6:01PM","{'lat': 14.661733, 'lng': 120.9458374}",120.9458374,14.661733
2,San Lorenzo Ruiz and Companions,"Phase 1-C Kaunlaran Village Dagat-dagatan, Navotas City, Metro Manila",,"Rev. Fr. Allan V. Lopez,OP",,,,"Wed Mar 17, 2010 10:43AM","{'lat': 14.6432715, 'lng': 120.9582758}",120.9582758,14.6432715
3,San Roque Parish,"M. Naval St., Navotas City, Metro Manila",,Rev. Fr. Lauro Frias,,,,"Wed Mar 17, 2010 10:43AM","{'lat': 14.661733, 'lng': 120.9458374}",120.9458374,14.661733
4,Sta. Cruz Parish,"E. Rodriguez St Tanza, Navotas City, Metro Manila",not specified,Rev. Fr. Jun de Guzman,,,Established in 1993,"Thu Jun 19, 2014 7:26AM","{'lat': 14.6764184, 'lng': 120.9366147}",120.9366147,14.6764184
0,Diocesan Shrine and Parish of St. Columban,"1 First St. New Asinan, Olongapo City, Zambales",(047) 222 2536,,,,,"Sat Jul 8, 2023 10:48PM","{'lat': 14.8268608, 'lng': 120.2812801}",120.2812801,14.8268608
1,Holy Family Parish,"Lower Kalaklan, Olongapo City, Zambales",222-2050,,,,,"Sat Jul 8, 2023 11:37PM","{'lat': 14.8419081, 'lng': 120.2757905}",120.2757905,14.8419081
2,Holy Trinity Parish,"Santol Road, purok 5, New Cabalan, Olongapo City, Zambales",(047) 224-2446,,,,,"Sat Jul 8, 2023 11:32PM","{'lat': 14.8961351, 'lng': 120.378138}",120.378138,14.8961351
3,Immaculate Conception Parish,"Barretto, Olongapo City, Zambales",(047) 222-6279,,,,,"Sat Jul 8, 2023 10:53PM","{'lat': 14.8283431, 'lng': 120.2719932}",120.2719932,14.8283431
4,Parish of San Lorenzo of Manila,"120 Murphy St., New Kalalake, Olongapo City, Zambales",(047) 222 5560,,,,,"Sat Jul 8, 2023 11:15PM","{'lat': 14.8318807, 'lng': 120.289084}",120.289084,14.8318807
5,Parish of St. Anne,"Gordon Heights, Olongapo City, Zambales",(047) 222-5904,,,,,"Sat Jul 8, 2023 11:21PM","{'lat': 14.8738749, 'lng': 120.2801166}",120.2801166,14.8738749
6,Parish of St. Joseph,"18th Street corner Canda Street, Olongapo City, Zambales",(047) 222 4290,,- Pagkatapos ng Banal na Misa (5:00pm) at habang Banal na Oras (5:30pm),,,"Sat Jul 8, 2023 11:24PM","{'lat': 14.8399168, 'lng': 120.2872296}",120.2872296,14.8399168
7,Parish of Sta. Rita,"Sta. Rita, Olongapo City, Zambales","222-2165, 0968-3005728",,,,,"Sat Jul 8, 2023 11:29PM","{'lat': 14.8579142, 'lng': 120.3003035}",120.3003035,14.8579142
8,San Roque Chapel,"Subic Bay Freeport Zone, Olongapo City, Zambales",(047) 252 4539,,,,,"Sat Jul 8, 2023 11:39PM","{'lat': 14.7690037, 'lng': 120.3204873}",120.3204873,14.7690037
9,St. Vincent de Paul Parish,"Cabalan , Olongapo City, Zambales",0956 094 2370,,,,,"Sat Jul 8, 2023 11:42PM","{'lat': 14.8961351, 'lng': 120.378138}",120.378138,14.8961351
0,Ascencion of Our Lord Parish,"Rainbow Drive, Goodwill 2 Subd., Sucat, Parañaque City, Metro Manila",826-4396,,Confessions are upon request. You may approach the priest after the Mass or set an appointment through the parish office.,,,"Sun Dec 18, 2022 7:55PM","{'lat': 14.4548784, 'lng': 121.0403587}",121.0403587,14.4548784
1,Conventual Franciscans - St. Maximilian Kolbe Seminary Chapel,"32 John Paul St., Multinational Village, Parañaque City, Metro Manila",(02)8556-5201,,,,,"Thu Oct 24, 2019 9:36PM","{'lat': 14.4789215, 'lng': 121.0022234}",121.0022234,14.4789215
2,Holy Eucharist Parish,"Armstrong Ave., Moonwalk Village, Parañaque City, Metro Manila",288214437,,,,,"Fri Dec 30, 2022 9:32PM","{'lat': 14.4979103, 'lng': 121.013453}",121.013453,14.4979103
3,Holy Infant Jesus Parish,"Corner Pres. Aguinaldo Street, Pres.Roxas, South Admiral Village, Parañaque City, Metro Manila",,,,,,"Wed Feb 1, 2023 10:06PM","{'lat': 14.4982743, 'lng': 121.0254973}",121.0254973,14.4982743
4,Jesus the Divine Healer Parish,"12 Lily St., Tahanan Village, Sucat, Parañaque City, Metro Manila",+63(2) 8090978,Rev. Fr. JERICO H. HABUNAL,before and after every mass,,,"Wed Apr 12, 2023 9:28AM","{'lat': 14.4501296, 'lng': 121.0302774}",121.0302774,14.4501296
5,Mary Help of Christians National Shrine,"Better Living Subd., Brgy. Don Bosco, Parañaque City, Metro Manila",288239220,,available every mass EXCEPT Monday and the 12:00nn Sunday Mass,,,"Wed Apr 5, 2023 12:38PM","{'lat': 14.4818424, 'lng': 121.0368194}",121.0368194,14.4818424
6,Mary Immaculate Parish,"Don Lauro Ave, Levitown Estate, Better Living Subdivision, Parañaque City, Metro Manila",027767855,Rev. Fr. Eric P. Gonzales SHMI,,,"Novena Schedules;
Wednesday 6:45pm - Novena to our Mother of Perpetual Help
First Friday 6:00pm - Holy Hour in honor of the Sacred Heart of Jesus","Sun Oct 19, 2014 3:13AM","{'lat': 14.4827076, 'lng': 121.0132905}",121.0132905,14.4827076
7,"Mary, Mother of Good Counsel Parish","Peach St., Marcelo Green Village, Parañaque City, Metro Manila",,,,,,"Sun Feb 5, 2023 7:05PM","{'lat': 14.476816, 'lng': 121.0393089}",121.0393089,14.476816
8,"Mary, Queen of Apostles Parish","San Antonio Valley 6, Sucat, Parañaque City, Metro Manila",Landline 02 8826 5315 Smart 0928 756 1297 Globe 09,"Fr. Simone Caelli, PIME",,,,"Mon Apr 1, 2024 3:18PM","{'lat': 14.4670146, 'lng': 121.005146}",121.005146,14.4670146
9,National Shrine of Our Mother of Perpetual Help (Baclaran Church),"Baclaran, Parañaque City, Metro Manila",832-1150 / 832-1151 / 833-5016,"Fr. Rico John C. Bilangel, CSsR",Daily except Wed and Sun: 8:30AM - 11:30AM and 3:00PM - 6:00PM,,Special Masses,"Mon Apr 1, 2024 3:22PM","{'lat': 14.52475, 'lng': 120.9847642}",120.9847642,14.52475
10,Our Lady of Beautiful Love Parish,"80 Washington St., Merville Park Subd., Parañaque City, Metro Manila",288242688,Fr. Rio G. Evangelista,,,,"Mon Nov 13, 2023 3:56PM","{'lat': 14.498793, 'lng': 121.0219961}",121.0219961,14.498793
11,Our Lady of Grace Parish,"Ireneville I Subd., Sucat, Parañaque City, Metro Manila",288269606,,,,,"Mon Apr 15, 2024 10:20PM","{'lat': 14.4849611, 'lng': 121.0450195}",121.0450195,14.4849611
12,Our Lady of Peace Parish,"Cadena de Amor, Fourth Estate Subd., Parañaque City, Metro Manila",288254604,Fr. Christopher Tejido,,,,"Mon Apr 1, 2024 3:15PM","{'lat': 14.4638031, 'lng': 121.017141}",121.017141,14.4638031
13,Our Lady of the Most Holy Rosary Parish,"4098 Bougainville Street. Sun Valley Subdivision, Brgy. Sun Valley, Parañaque City, Metro Manila",288231210,,,,olmhrp.sunvalley2019@gmail.com,"Sun Feb 5, 2023 9:50PM","{'lat': 14.4886202, 'lng': 121.0361949}",121.0361949,14.4886202
14,Our Lady of the Most Holy Rosary Parish,"Multinational Village, Parañaque City, Metro Manila",288250216,,,,,"Sun Feb 5, 2023 9:58PM","{'lat': 14.477509, 'lng': 121.0105349}",121.0105349,14.477509
15,Our Lady of Unity Parish,"9th St., Area 5, UPS 5, Brgy. San Isidro, Parañaque City, Metro Manila",0995 273 5185,,,,,"Sun Feb 5, 2023 10:03PM","{'lat': 14.4602784, 'lng': 121.0123877}",121.0123877,14.4602784
16,Padre Pio Parish,"Garnet St., Severina Diamond, KM18, West Service Road, Brgy. Marcelo Green, Parañaque City, Metro Manila",277390079,,Weekdays after 6:30 AM Mass,,,"Wed Jan 4, 2023 1:09PM","{'lat': 14.4687588, 'lng': 121.0447081}",121.0447081,14.4687588
17,Presentation of the Child Jesus Parish,"34 Aguirre Avenue Corner F. Cruz Street, Parañaque City, Metro Manila",288254151,Fr. Elmer Ilao,Mon-Sat: 5:00PM,,Every First Friday of the Month - Mass for the Sick and Disabled 10:00 AM (English),"Mon Apr 15, 2024 10:12PM","{'lat': 14.4452191, 'lng': 121.0262756}",121.0262756,14.4452191
18,Resurrection of Our Lord Parish,"Gng. E. Gatches St., BF Homes, Ph 1, Parañaque City, Metro Manila",842-5434,,Fridays: 4-6PM,,,"Mon Apr 1, 2024 3:12PM","{'lat': 14.4448102, 'lng': 121.0272289}",121.0272289,14.4448102
19,Saint Andrew Cathedral,"Quirino Ave., La Huerta, Parañaque City, Metro Manila",(02) 8826-1760,,,,,"Wed Mar 20, 2024 11:26PM","{'lat': 14.4983253, 'lng': 120.9904217}",120.9904217,14.4983253
20,Saint Joseph Parish,"223 Quirino Ave., Tambo, Parañaque City, Metro Manila",8852-8441,,every after Mass: Mon to  Fri,,,"Sun Mar 5, 2023 8:59PM","{'lat': 14.5161924, 'lng': 120.9962627}",120.9962627,14.5161924
21,Saint Martin de Porres Parish,"2222 Narra Street, United Hills Village (UPS I), Parañaque City, Metro Manila",823-2842,,,,,"Sun Mar 5, 2023 9:06PM","{'lat': 14.5023275, 'lng': 121.0401283}",121.0401283,14.5023275
22,San Agustin Parish,"San Agustin Village, Moonwalk, Parañaque City, Metro Manila",288288930,,,,,"Sun Mar 5, 2023 9:57PM","{'lat': 14.4610004, 'lng': 121.0189621}",121.0189621,14.4610004
23,San Antonio de Padua Parish,"139 San Antonio Avenue corner San Pancrasio Streets, San Antonio Valley I, Parañaque City, Metro Manila",288268877,Fr. Kevin Luther Crisostomo,Mondays to Fridays - 3-5PM,,,"Wed Mar 20, 2024 11:18PM","{'lat': 14.469185, 'lng': 121.0211992}",121.0211992,14.469185
24,Santa Rita de Cascia Parish,"Quirino Ave., Baclaran, Parañaque City, Metro Manila",8853-0063,,,,,"Sun Mar 5, 2023 10:08PM","{'lat': 14.5230397, 'lng': 120.9968064}",120.9968064,14.5230397
25,Santo Niño Parish,"8542 Col. E.L. de Leon St., Santo Niño, Parañaque City, Metro Manila",0905 365 1911,Fr. Jose Soler,,,,"Mon Apr 15, 2024 10:16PM","{'lat': 14.5017427, 'lng': 120.9957899}",120.9957899,14.5017427
